City_ID,City,Country,Lat,Lng,Max Temp,Humidity,Cloudiness,Wind Speed,Current Description
0,Atuona,PF,-9.8,-139.0333,77.54,70,32,16.04,scattered clouds
1,Tuktoyaktuk,CA,69.4541,-133.0374,28.4,100,90,0.0,overcast clouds
2,Severo-Kurilsk,RU,50.6789,156.125,42.71,92,100,5.41,overcast clouds
3,Narsaq,GL,60.9167,-46.05,35.82,67,4,4.03,clear sky
4,Lebu,CL,-37.6167,-73.65,58.12,75,6,15.97,clear sky
5,Hermanus,ZA,-34.4187,19.2345,72.81,89,100,8.81,light rain
6,High Level,CA,58.5169,-117.136,32.11,100,90,3.44,mist
7,Klamath Falls,US,42.2249,-121.7817,53.49,75,20,1.99,few clouds
8,Avarua,CK,-21.2078,-159.775,71.65,83,75,4.61,light rain
9,Georgetown,MY,5.4112,100.3354,81.9,90,40,3.0,scattered clouds
10,Rikitea,PF,-23.1203,-134.9692,73.29,78,83,6.44,broken clouds
11,Nanortalik,GL,60.1432,-45.2371,37.38,61,0,6.64,clear sky
12,Clyde River,CA,70.4692,-68.5914,34.03,86,75,10.36,broken clouds
13,Yellowknife,CA,62.456,-114.3525,39.42,100,90,3.44,light rain
14,Vakhrushev,RU,48.9833,142.9667,45.28,88,100,5.39,moderate rain
15,Presidente Epitacio,BR,-21.7633,-52.1156,87.73,51,95,3.36,overcast clouds
16,Lakselv,NO,70.0513,24.9718,29.75,86,20,8.05,few clouds
17,Ewo,CG,-0.8725,14.8206,72.73,94,92,2.73,overcast clouds
18,Ponta Do Sol,PT,32.6667,-17.1,74.71,67,20,2.51,few clouds
19,Ilulissat,GL,69.2167,-51.1,15.82,48,40,5.75,scattered clouds
20,Butaritari,KI,3.0707,172.7902,82.85,68,100,10.67,overcast clouds
21,Bluff,NZ,-46.6,168.3333,51.46,88,48,8.72,scattered clouds
22,Atar,MR,20.5169,-13.0499,78.35,50,74,13.89,broken clouds
23,Cabo San Lucas,MX,22.8909,-109.9124,86.5,58,1,1.99,clear sky
24,Douentza,ML,14.9951,-2.9517,94.37,11,3,6.17,clear sky
25,Hastings,GB,50.8552,0.5729,59.38,77,81,15.75,broken clouds
26,Thompson,CA,55.7435,-97.8558,41.16,100,90,3.44,mist
27,Ushuaia,AR,-54.8,-68.3,55.06,41,20,14.97,few clouds
28,Sorland,NO,67.667,12.6934,44.46,91,100,24.47,light rain
29,Hami,CN,42.8,93.45,49.33,33,0,2.75,clear sky
30,Isangel,VU,-19.55,169.2667,75.58,89,100,7.7,overcast clouds
31,Punta Arenas,CL,-53.15,-70.9167,55.51,47,0,36.82,clear sky
32,Port Hardy,CA,50.6996,-127.4199,50.0,93,75,6.91,broken clouds
33,Margate,GB,51.3813,1.3862,60.04,82,96,3.0,overcast clouds
34,Provideniya,RU,64.3833,-173.3,14.22,78,99,9.6,overcast clouds
35,Providencia,MX,28.7167,-111.5833,79.65,27,0,8.01,clear sky
36,Vila Franca Do Campo,PT,37.7167,-25.4333,68.41,91,100,11.5,overcast clouds
37,Chester,US,40.1254,-75.8749,65.88,73,75,3.0,broken clouds
38,Sampit,ID,-2.5333,112.95,75.58,95,54,1.28,broken clouds
39,Marawi,PH,7.9986,124.2928,64.65,94,100,3.36,overcast clouds
40,Emerald,AU,-23.5333,148.1667,73.54,65,40,6.91,scattered clouds
41,Port Alfred,ZA,-33.5906,26.891,67.1,81,100,36.8,overcast clouds
42,Machali,CL,-34.1833,-70.6667,76.28,41,0,12.66,clear sky
43,Hithadhoo,MV,-0.6,73.0833,83.08,71,11,15.75,few clouds
44,Wadi Musa,JO,30.3222,35.4793,61.88,38,0,4.74,clear sky
45,Zyryanka,RU,65.75,150.85,-1.21,94,72,6.22,broken clouds
46,Banes,CU,20.9625,-75.7186,90.21,55,18,4.32,few clouds
47,Fort Nelson,CA,58.8053,-122.7002,31.59,93,90,2.3,overcast clouds
48,Mar Del Plata,AR,-38.0023,-57.5575,77.02,65,0,9.22,clear sky
49,Allapalli,IN,19.4167,80.0667,67.39,68,3,2.57,clear sky
50,Gevrai,IN,19.2667,75.75,72.18,61,24,6.4,few clouds
51,Upernavik,GL,72.7868,-56.1549,23.74,70,98,4.85,overcast clouds
52,Qaanaaq,GL,77.484,-69.3632,20.95,94,100,11.03,overcast clouds
53,Coahuayana,MX,18.7333,-103.6833,87.28,57,63,4.18,broken clouds
54,Fortuna,US,40.5982,-124.1573,63.93,71,90,3.0,overcast clouds
55,Castro,BR,-24.7911,-50.0119,70.39,74,87,6.24,overcast clouds
56,Naze,JP,28.3667,129.4833,66.87,62,20,13.31,few clouds
57,Aklavik,CA,68.2191,-135.0107,27.43,93,99,4.41,overcast clouds
58,Mount Gambier,AU,-37.8333,140.7667,55.31,94,90,6.91,light intensity shower rain
59,Bengkulu,ID,-3.8004,102.2655,75.88,87,100,3.06,overcast clouds
60,Cape Town,ZA,-33.9258,18.4232,70.12,72,20,4.61,few clouds
61,Ahipara,NZ,-35.1667,173.1667,58.96,85,100,4.81,overcast clouds
62,Chicama,PE,-7.8447,-79.1469,63.14,57,33,11.18,scattered clouds
63,Mitsamiouli,KM,-11.3847,43.2844,79.09,83,20,4.61,few clouds
64,Barrow,US,71.2906,-156.7887,21.22,86,90,9.22,overcast clouds
65,Antalaha,MG,-14.9003,50.2788,71.49,89,8,4.85,clear sky
66,Ebolowa,CM,2.9,11.15,70.65,98,83,2.71,light rain
67,Bambous Virieux,MU,-20.3428,57.7575,73.22,78,20,5.75,few clouds
68,Okakarara,NA,-20.5833,17.4333,65.79,82,94,11.59,moderate rain
69,Jamestown,US,42.097,-79.2353,58.08,78,75,3.0,broken clouds
70,Huarmey,PE,-10.0681,-78.1522,70.84,70,31,11.79,scattered clouds
71,Esperance,AU,-33.8667,121.9,49.84,61,86,23.73,overcast clouds
72,Palmer,US,42.1584,-72.3287,56.46,85,90,1.99,overcast clouds
73,East London,ZA,-33.0153,27.9116,67.14,88,75,19.57,broken clouds
74,Kankaanpaa,FI,61.8,22.4167,45.36,96,100,0.76,overcast clouds
75,Candolim,IN,15.5181,73.7626,77.49,66,1,8.43,clear sky
76,Khatanga,RU,71.9667,102.5,6.3,91,100,11.5,overcast clouds
77,Tasiilaq,GL,65.6145,-37.6368,33.96,63,31,4.81,scattered clouds
78,Ati,TD,13.2154,18.3353,93.25,13,7,8.19,clear sky
79,Carlos Chagas,BR,-17.7031,-40.7664,81.0,59,86,11.32,overcast clouds
80,Vaini,TO,-21.2,-175.2,73.56,88,75,8.05,broken clouds
81,Padang,ID,-0.9492,100.3543,77.05,80,49,3.2,scattered clouds
82,Hobart,AU,-42.8794,147.3294,57.06,59,92,17.27,overcast clouds
83,Shelburne,CA,44.0787,-80.2041,56.3,80,33,5.73,scattered clouds
84,Mataura,NZ,-46.1927,168.8643,47.03,96,49,2.42,scattered clouds
85,Kapaa,US,22.0752,-159.319,72.19,97,1,5.75,clear sky
86,Sao Felix Do Xingu,BR,-6.6447,-51.995,88.36,53,62,1.39,broken clouds
87,Kavaratti,IN,10.5669,72.642,81.64,75,54,7.96,broken clouds
88,Cururupu,BR,-1.8283,-44.8683,87.22,57,71,7.45,broken clouds
89,Pasni,PK,25.2631,63.471,78.22,73,0,5.21,clear sky
90,Vyartsilya,RU,62.1764,30.693,40.17,98,100,3.29,overcast clouds
91,Qui Nhon,VN,13.7667,109.2333,77.36,91,100,4.03,overcast clouds
92,Arraial Do Cabo,BR,-22.9661,-42.0278,80.56,83,75,16.11,broken clouds
93,Carnarvon,AU,-24.8667,113.6333,66.27,59,90,12.66,overcast clouds
94,Manhattan Beach,US,33.8847,-118.4109,80.31,50,1,1.99,clear sky
95,Vila Velha,BR,-20.3297,-40.2925,82.35,65,20,13.8,few clouds
96,Leningradskiy,RU,69.3833,178.4167,9.75,93,100,20.54,light snow
97,Hilo,US,19.7297,-155.09,83.28,77,75,5.75,broken clouds
98,Ribeira Grande,PT,38.5167,-28.7,68.4,73,40,17.27,scattered clouds
99,Kiama,AU,-34.6833,150.8667,58.48,92,88,3.47,overcast clouds
100,Nikolskoye,RU,59.7035,30.7861,47.01,89,100,7.11,light rain
101,Oktyabrskoye,RU,43.0645,44.7417,30.34,93,0,6.71,clear sky
102,Winnemucca,US,40.973,-117.7357,54.1,66,1,8.05,clear sky
103,Biak,ID,-0.9131,122.8766,76.82,85,22,0.4,few clouds
104,Tuatapere,NZ,-46.1333,167.6833,49.77,95,54,3.58,broken clouds
105,Sharlyk,RU,52.9167,54.75,37.45,55,100,16.37,overcast clouds
106,Staryy Nadym,RU,65.6118,72.6842,12.69,87,39,6.58,scattered clouds
107,Constitucion,CL,-35.3333,-72.4167,63.48,64,12,10.2,few clouds
108,Port-Gentil,GA,-0.7193,8.7815,80.56,78,75,12.66,broken clouds
109,Torbay,CA,47.6666,-52.7314,44.28,74,75,13.8,broken clouds
110,Busselton,AU,-33.65,115.3333,47.05,86,23,9.37,few clouds
111,Puerto Ayora,EC,-0.7393,-90.3518,75.16,89,96,5.01,overcast clouds
112,Irbeyskoye,RU,55.6428,95.4522,29.34,56,91,7.43,overcast clouds
113,Namatanai,PG,-3.6667,152.4333,80.02,80,41,6.51,scattered clouds
114,Dali,CN,25.7,100.1833,54.79,88,14,4.25,few clouds
115,Siyabuswa,ZA,-25.1132,29.0445,71.46,58,72,19.17,broken clouds
116,Kirensk,RU,57.7853,108.1119,30.9,65,74,11.23,broken clouds
117,Porto Velho,BR,-8.7619,-63.9039,86.05,62,75,2.3,light rain
118,Mtwara,TZ,-10.2667,40.1833,76.95,85,41,7.81,scattered clouds
119,Longyearbyen,SJ,78.2186,15.6401,17.44,73,0,8.05,clear sky
120,Prince Rupert,CA,54.3161,-130.3201,47.89,74,100,19.57,light rain
121,Pisco,PE,-13.7,-76.2167,68.05,73,0,10.36,clear sky
122,Camargo,MX,27.6667,-105.1667,72.91,23,0,15.48,clear sky
123,Douglas,US,41.3,-96.167,55.15,93,90,3.0,moderate rain
124,Campos Belos,BR,-13.0367,-46.7717,95.11,24,23,7.74,few clouds
125,Pemba,MZ,-12.974,40.5178,79.5,89,20,10.36,few clouds
126,Ketchikan,US,55.3422,-131.6461,45.07,81,75,4.61,light rain
127,Oriximina,BR,-1.7656,-55.8661,90.82,51,99,4.85,overcast clouds
128,Lahaina,US,20.8783,-156.6825,77.81,80,17,4.29,few clouds
129,Alofi,NU,-19.0595,-169.9187,73.29,78,68,10.36,broken clouds
130,Airai,TL,-8.9266,125.4092,62.11,84,91,1.52,overcast clouds
131,Paragominas,BR,-2.9667,-47.4833,87.49,52,70,5.28,broken clouds
132,Labuhan,ID,-6.8844,112.2051,80.44,83,100,5.14,overcast clouds
133,Curup,ID,-3.4667,102.5333,67.08,96,100,1.25,overcast clouds
134,Buraydah,SA,26.326,43.975,81.05,12,96,11.63,overcast clouds
135,Bethel,US,41.3712,-73.414,58.73,78,90,1.99,overcast clouds
136,Nyurba,RU,63.2842,118.3319,33.67,69,100,16.06,overcast clouds
137,Saskylakh,RU,71.9167,114.0833,-12.12,100,100,2.15,overcast clouds
138,Khani,GE,41.9563,42.9566,42.37,54,0,4.25,clear sky
139,Albany,US,42.6001,-73.9662,58.37,70,95,11.43,overcast clouds
140,Faanui,PF,-16.4833,-151.75,78.96,79,73,6.6,light rain
141,Kavieng,PG,-2.5744,150.7967,80.91,80,20,10.89,moderate rain
142,San Carlos De Bariloche,AR,-41.1456,-71.3082,74.44,20,0,16.11,clear sky
143,Port Elizabeth,ZA,-33.918,25.5701,67.1,88,40,26.46,thunderstorm with light rain
144,Sangar,RU,63.9242,127.4739,13.6,95,100,7.65,overcast clouds
145,Nemuro,JP,43.3236,145.575,54.14,83,100,12.8,overcast clouds
146,Liuhe,CN,42.2401,125.7172,38.46,60,0,2.73,clear sky
147,Chokurdakh,RU,70.6333,147.9167,3.33,90,100,5.64,overcast clouds
148,Yulara,AU,-25.2406,130.9889,76.84,23,62,6.91,broken clouds
149,Taonan,CN,45.3333,122.7833,40.89,45,0,5.17,clear sky
150,Inhambane,MZ,-23.865,35.3833,75.18,73,40,6.91,light rain
151,Goroka,PG,-6.0834,145.3873,58.3,95,86,0.98,overcast clouds
152,Woodward,US,36.4337,-99.3904,58.23,56,90,25.32,overcast clouds
153,Mahebourg,MU,-20.4081,57.7,73.26,78,20,5.75,few clouds
154,Kununurra,AU,-15.7667,128.7333,80.58,89,75,1.14,broken clouds
155,Choya,RU,52.0108,86.5467,33.73,99,100,1.97,light rain
156,Sao Joao Da Barra,BR,-21.6403,-41.0511,82.49,80,74,14.41,broken clouds
157,Tiksi,RU,71.6872,128.8694,7.92,96,98,4.05,overcast clouds
158,Kodinsk,RU,58.6881,99.1844,25.81,62,60,11.56,broken clouds
159,Aykhal,RU,66.0,111.5,20.64,92,100,24.83,light snow
160,Sitka,US,57.0531,-135.33,44.49,93,90,6.91,moderate rain
161,Culaman,PH,5.9603,125.6586,79.34,81,91,0.69,overcast clouds
162,Saldanha,ZA,-33.0117,17.9442,62.65,94,100,12.86,overcast clouds
163,Mathathane,BW,-22.2687,28.7495,73.26,58,56,21.45,broken clouds
164,Dikson,RU,73.5069,80.5464,6.6,93,58,4.07,broken clouds
165,Bredasdorp,ZA,-34.5322,20.0403,72.28,88,100,8.05,overcast clouds
166,Shache,CN,38.4167,77.2406,49.91,34,41,1.97,scattered clouds
167,Kodiak,US,57.79,-152.4072,36.28,48,1,3.44,clear sky
168,Inirida,CO,3.8653,-67.9239,81.54,83,82,2.04,broken clouds
169,Rottweil,DE,48.1678,8.6272,49.91,82,20,1.68,few clouds
170,Verdikoussa,GR,39.7803,21.9722,44.64,72,7,0.74,clear sky
171,Sao Francisco,BR,-15.9486,-44.8644,91.51,31,4,7.36,clear sky
172,Yar-Sale,RU,66.8333,70.8333,12.88,91,82,7.85,broken clouds
173,Cherskiy,RU,68.75,161.3,-19.12,98,8,5.19,clear sky
174,Denpasar,ID,-8.65,115.2167,78.46,88,20,1.14,few clouds
175,Egvekinot,RU,66.3167,-179.1667,3.34,91,99,4.12,overcast clouds
176,Hasaki,JP,35.7333,140.8333,57.6,88,99,8.1,overcast clouds
177,Adrar,MR,20.5022,-10.0711,80.15,35,15,18.37,few clouds
178,Lorengau,PG,-2.0226,147.2712,81.37,76,61,3.53,broken clouds
179,Creel,MX,27.75,-107.6333,64.89,23,47,9.13,scattered clouds
180,Nouadhibou,MR,20.931,-17.0347,69.64,86,56,16.4,broken clouds
181,Ereymentau,KZ,51.6199,73.1033,28.78,45,35,6.62,scattered clouds
182,Nhulunbuy,AU,-12.2333,136.7667,77.61,88,2,0.0,clear sky
183,Pangnirtung,CA,66.1451,-65.7125,32.0,80,75,6.91,broken clouds
184,Tottori,JP,35.5,134.2333,61.34,68,34,4.32,scattered clouds
185,Terrace Bay,CA,48.7834,-87.1,44.22,69,90,8.37,overcast clouds
186,New Norfolk,AU,-42.7826,147.0587,56.91,50,85,2.73,overcast clouds
187,Komsomolskiy,UZ,40.4272,71.7189,53.02,50,100,6.91,haze
188,Tete,MZ,-16.1564,33.5867,89.69,43,0,8.05,clear sky
189,Manuk Mangkaw,PH,4.8,119.85,82.06,69,49,3.78,scattered clouds
190,Jiangyou,CN,31.7667,104.7167,57.72,78,100,1.14,overcast clouds
191,Bucerias,MX,20.75,-105.3333,84.18,79,90,2.3,overcast clouds
192,Miranda De Ebro,ES,42.6865,-2.947,65.79,42,9,1.63,clear sky
193,Nome,US,64.5011,-165.4064,21.27,69,90,10.36,overcast clouds
194,Kruisfontein,ZA,-34.0033,24.7314,64.89,75,100,4.41,light rain
195,Coihaique,CL,-45.5752,-72.0662,62.55,45,75,6.91,broken clouds
196,Sao Filipe,CV,14.8961,-24.4956,79.43,75,68,8.48,broken clouds
197,Roseburg,US,43.2165,-123.3417,58.62,97,90,0.0,mist
198,Half Moon Bay,US,37.4636,-122.4286,67.59,79,1,6.91,haze
199,Cabedelo,BR,-6.9811,-34.8339,88.47,64,15,16.64,few clouds
200,Mirpur Sakro,PK,24.5474,67.6277,75.42,38,0,8.95,clear sky
201,Husavik,IS,66.0449,-17.3389,35.51,98,100,14.9,overcast clouds
202,Victor Harbor,AU,-35.5667,138.6167,61.81,88,90,9.26,overcast clouds
203,Yei,SS,4.095,30.6779,70.03,81,80,3.47,broken clouds
204,Deputatskiy,RU,69.3,139.9,0.88,97,100,1.68,overcast clouds
205,Saint George,US,37.1041,-113.5841,59.47,53,1,1.99,clear sky
206,Brightwater,NZ,-41.3833,173.1167,57.69,84,100,0.6,light rain
207,Yakeshi,CN,49.2833,120.7333,32.45,62,3,3.91,clear sky
208,Salalah,OM,17.0151,54.0924,78.89,78,0,0.0,clear sky
209,Kholtoson,RU,50.2981,103.3097,32.29,68,27,0.74,scattered clouds
210,Kulhudhuffushi,MV,6.6221,73.07,81.64,73,100,8.52,overcast clouds
211,Cocorit,MX,27.5833,-109.9667,82.74,34,0,6.6,clear sky
212,Sayansk,RU,54.1088,102.1648,36.79,53,99,6.29,overcast clouds
213,Dalbandin,PK,28.8947,64.4101,67.19,13,0,5.32,clear sky
214,Pathein,MM,16.7833,94.7333,76.39,87,61,1.99,broken clouds
215,Dunedin,NZ,-45.8742,170.5036,56.8,92,71,2.53,broken clouds
216,Neiafu,TO,-18.65,-173.9833,75.88,83,75,11.5,light rain
217,Maniwaki,CA,46.3834,-75.966,53.98,43,100,6.91,overcast clouds
218,Rosa Zarate,EC,0.3333,-79.4667,85.32,65,98,3.58,overcast clouds
219,Korop,UA,51.5664,32.9586,40.5,86,61,7.07,broken clouds
220,Tual,ID,-5.6667,132.75,83.79,76,47,11.34,scattered clouds
221,Alta Floresta,BR,-9.8756,-56.0861,89.42,62,20,3.44,few clouds
222,Hambantota,LK,6.1241,81.1185,78.17,83,96,12.1,overcast clouds
223,La Ronge,CA,55.1001,-105.2842,41.25,87,90,5.75,overcast clouds
224,Riyadh,SA,24.6877,46.7219,82.54,19,37,8.41,scattered clouds
225,Tiverton,GB,50.9,-3.4833,60.4,84,90,7.0,overcast clouds
226,Yurga,RU,55.7231,84.8861,28.06,62,93,9.28,overcast clouds
227,Chuy,UY,-33.6971,-53.4616,82.36,49,0,7.02,clear sky
228,Altamira,BR,-3.2033,-52.2064,86.09,74,75,8.05,broken clouds
229,Cologne,DE,50.9333,6.95,58.55,79,20,1.01,few clouds
230,Ushibuka,JP,32.1906,130.0228,64.67,58,0,10.04,clear sky
231,Broome,US,42.2506,-75.833,56.01,69,20,1.99,few clouds
232,Boddam,GB,57.4667,-1.7833,57.58,89,100,14.58,overcast clouds
233,Meulaboh,ID,4.1363,96.1285,74.05,94,100,5.41,moderate rain
234,Kendari,ID,-3.945,122.4989,78.06,85,39,1.07,scattered clouds
235,Teya,RU,60.3778,92.6267,22.5,83,98,12.44,light snow
236,Pevek,RU,69.7008,170.3133,9.93,94,100,12.33,light snow
237,Wattegama,LK,6.7989,81.4808,74.46,90,98,1.63,overcast clouds
238,Sibu,MY,2.3,111.8167,79.11,94,40,1.01,scattered clouds
239,Ulaangom,MN,49.9811,92.0667,36.7,61,100,1.9,overcast clouds
240,Geilo,NO,60.5333,8.2076,37.27,88,60,7.11,broken clouds
241,Caravelas,BR,-17.7125,-39.2481,81.12,59,85,10.51,overcast clouds
242,Senador Jose Porfirio,BR,-2.5908,-51.9542,86.65,60,78,3.31,broken clouds
243,Swan Hill,AU,-35.3378,143.5544,61.47,47,58,2.57,light rain
244,Barraute,CA,48.4335,-77.6328,44.87,55,100,5.53,overcast clouds
245,Aksu,CN,41.1231,80.2644,50.72,37,10,3.78,clear sky
246,Kloulklubed,PW,7.0419,134.2556,84.2,71,68,11.21,broken clouds
247,Hofn,IS,64.2539,-15.2082,37.42,93,0,5.75,clear sky
248,Ambilobe,MG,-13.2,49.05,74.64,76,78,3.04,broken clouds
249,Daru,PG,-9.0763,143.2092,80.19,82,84,14.67,broken clouds
250,Baykit,RU,61.67,96.37,21.11,83,100,15.82,overcast clouds
251,Kamaishi,JP,39.2667,141.8833,55.08,82,28,5.21,scattered clouds
252,Saint-Francois,FR,46.4154,3.9054,50.68,94,0,0.0,clear sky
253,Utete,TZ,-7.986,38.758,75.78,80,38,6.49,scattered clouds
254,Pacific Grove,US,36.6177,-121.9166,69.42,73,1,1.99,clear sky
255,Port Lincoln,AU,-34.7333,135.8667,56.43,84,41,10.0,light rain
256,Presidencia Roque Saenz Pena,AR,-26.7852,-60.4388,98.46,15,28,8.63,scattered clouds
257,Tuy Hoa,VN,13.0833,109.3,76.57,92,99,3.98,overcast clouds
258,Morgan City,US,29.6994,-91.2068,84.2,72,64,18.21,broken clouds
259,Lewiston,US,44.1003,-70.2148,53.71,81,100,4.0,light rain
260,Manakara,MG,-22.1333,48.0167,74.64,80,44,9.01,scattered clouds
261,Bereda,ES,43.2686,-7.5406,60.55,78,17,1.23,few clouds
262,Kochubey,RU,44.3861,46.5825,45.61,72,0,11.07,clear sky
263,Sikonge,TZ,-5.6333,32.7667,74.79,46,84,4.09,broken clouds
264,Sartell,US,45.6216,-94.2069,50.45,91,90,3.0,light rain
265,San Cristobal,VE,7.7669,-72.225,80.78,57,97,6.08,overcast clouds
266,Haines Junction,CA,60.7522,-137.5108,24.75,86,99,2.3,overcast clouds
267,Ishigaki,JP,24.3448,124.1572,76.03,63,91,15.5,overcast clouds
268,Hobyo,SO,5.3505,48.5268,81.18,77,56,11.48,broken clouds
269,Bilma,NE,18.6853,12.9164,87.17,12,0,6.08,clear sky
270,Mumbwa,ZM,-14.9783,27.0619,81.46,32,49,12.01,scattered clouds
271,Talara,PE,-4.5772,-81.2719,74.16,64,0,18.41,clear sky
272,Camacha,PT,33.0833,-16.3333,69.22,68,40,9.22,scattered clouds
273,Sabzevar,IR,36.2126,57.6819,48.09,53,28,5.37,scattered clouds
274,Roald,NO,62.5833,6.1333,55.09,76,40,16.11,scattered clouds
275,Kiunga,PG,-6.1219,141.2906,73.44,99,73,1.83,light rain
276,Katsuura,JP,35.1333,140.3,62.62,91,100,6.46,overcast clouds
277,Mackay,AU,-21.15,149.2,72.05,94,14,3.44,few clouds
278,Chapais,CA,49.7834,-74.8492,46.18,45,100,5.48,overcast clouds
279,Ewa Beach,US,21.3156,-158.0072,78.01,80,40,3.44,scattered clouds
280,Moron,AR,-34.6534,-58.6198,96.03,34,4,4.0,clear sky
281,Port Pirie,AU,-33.1833,138.0167,60.89,84,11,2.98,few clouds
282,Tupik,RU,54.4253,119.9327,33.48,62,87,4.27,overcast clouds
283,Suez,EG,29.9737,32.5263,74.01,49,2,9.13,clear sky
284,Harper,LR,4.375,-7.7169,78.58,83,71,5.53,broken clouds
285,Talnakh,RU,69.4865,88.3972,-2.16,98,100,11.81,overcast clouds
286,Brae,GB,60.3964,-1.353,53.51,88,71,14.52,broken clouds
287,Mastic Beach,US,40.7668,-72.8521,60.04,79,90,3.0,overcast clouds
288,Banjar,ID,-8.19,114.9675,78.66,88,100,2.86,overcast clouds
289,Jatai,BR,-17.8814,-51.7144,84.92,47,100,9.93,overcast clouds
290,Nanning,CN,22.8167,108.3167,72.05,68,96,4.27,overcast clouds
291,Bayan,CN,46.0833,127.4,35.69,82,4,5.88,clear sky
292,Phan Thiet,VN,10.9333,108.1,75.88,91,100,3.33,overcast clouds
293,Daphne,US,30.6035,-87.9036,76.86,64,1,11.5,clear sky
294,Korla,CN,41.7597,86.1469,49.01,41,94,2.73,overcast clouds
295,Olafsvik,IS,64.8945,-23.7142,39.97,95,100,21.97,overcast clouds
296,Ixtapa,MX,20.7,-105.2,83.43,79,90,2.3,overcast clouds
297,Yatou,CN,37.15,122.3833,51.89,68,2,5.75,clear sky
298,Tadine,NC,-21.55,167.8833,73.15,86,82,4.9,broken clouds
299,Makakilo City,US,21.3469,-158.0858,76.6,81,90,4.61,overcast clouds
300,Svetlyy,RU,54.675,20.1347,53.65,86,100,20.56,overcast clouds
301,Manado,ID,1.487,124.8455,75.97,94,40,0.0,scattered clouds
302,Petrykiv,UA,49.5332,25.5809,49.48,81,85,5.1,overcast clouds
303,Yokadouma,CM,3.5167,15.05,67.33,97,100,5.35,moderate rain
304,Ancud,CL,-41.8697,-73.8203,64.42,69,51,8.84,broken clouds
305,Quesnel,CA,52.9999,-122.5029,45.1,57,75,11.5,broken clouds
306,Bonavista,CA,48.6499,-53.1147,45.12,69,91,13.42,overcast clouds
307,Dalnerechensk,RU,45.9339,133.7225,41.7,83,100,7.31,moderate rain
308,Caiaponia,BR,-16.9567,-51.8103,85.1,45,95,8.57,overcast clouds
309,Nenjiang,CN,49.1833,125.2167,35.02,79,4,3.18,clear sky
310,Ayan,RU,56.45,138.1667,34.34,80,85,3.71,overcast clouds
311,Saint-Pierre,RE,-21.3393,55.4781,73.08,78,90,3.44,overcast clouds
312,Manzhouli,CN,49.6,117.4333,35.19,65,17,5.39,few clouds
313,Dicabisagan,PH,17.0818,122.4157,77.14,87,69,7.56,broken clouds
314,Gat,IL,31.61,34.7642,72.81,60,0,7.56,clear sky
315,Praia Da Vitoria,PT,38.7333,-27.0667,70.05,78,40,12.3,scattered clouds
316,Taunggyi,MM,20.7833,97.0333,60.49,96,78,1.41,broken clouds
317,Belvedere Marittimo,IT,39.6179,15.8617,55.94,72,47,10.89,scattered clouds
318,Verkhnyaya Inta,RU,65.9811,60.3094,22.8,73,100,15.12,overcast clouds
319,Hondo,JP,32.45,130.2,59.95,58,0,7.7,clear sky
320,Porto Novo,BJ,6.4965,2.6036,84.02,80,94,5.35,overcast clouds
321,Gizo,SB,-8.103,156.8419,82.54,78,26,9.15,scattered clouds
322,Bairnsdale,AU,-37.8333,147.6167,53.71,94,86,5.3,overcast clouds
323,Ucluelet,CA,48.9329,-125.5528,50.31,91,99,6.76,light rain
324,Sandnessjoen,NO,66.0217,12.6316,49.98,93,75,8.99,shower rain
325,Dukat,RU,62.55,155.55,-1.44,90,78,3.94,broken clouds
326,Marienburg,PL,54.0359,19.0266,56.95,84,100,12.06,overcast clouds
327,Jieshi,CN,22.8134,115.8257,74.57,82,65,18.01,light rain
328,Kalamnuri,IN,19.6667,77.3333,68.61,64,1,2.53,clear sky
329,Laguna,US,38.421,-121.4238,68.23,81,75,1.01,broken clouds
330,Purpe,RU,64.4803,76.6897,8.38,95,48,9.55,scattered clouds
331,Jiuquan,CN,39.7432,98.5174,43.99,37,39,6.44,scattered clouds
332,Avera,US,33.194,-82.5271,67.51,29,70,3.09,broken clouds
333,Honningsvag,NO,70.9821,25.9704,33.55,69,40,17.27,scattered clouds
334,Suluq,LY,31.6682,20.2521,71.13,76,72,3.67,broken clouds
335,Ponta Delgada,PT,37.7333,-25.6667,68.72,94,75,13.8,broken clouds
336,Dawson Creek,CA,55.7666,-120.2362,44.24,57,1,6.91,clear sky
337,San Quintin,MX,30.4833,-115.95,70.36,49,0,3.24,clear sky
338,Marsa Matruh,EG,31.3525,27.2453,73.92,77,93,15.52,overcast clouds
339,Amapa,BR,1.0,-52.0,97.29,30,100,4.68,overcast clouds
340,Aberdeen,GB,57.1437,-2.0981,59.49,88,100,10.36,overcast clouds
341,Eyl,SO,7.9803,49.8164,80.42,73,55,9.51,broken clouds
342,La Paz,BO,-16.5,-68.15,62.58,31,40,6.91,scattered clouds
343,Tsumeb,NA,-19.2333,17.7167,70.59,71,79,9.42,moderate rain
344,Tikrit,IQ,34.6071,43.6782,73.72,25,11,9.64,few clouds
345,Port Moresby,PG,-9.4431,147.1797,76.41,91,45,5.77,scattered clouds
346,Sabang,ID,5.8933,95.3214,81.14,76,96,7.92,overcast clouds
347,Chichli,IN,22.8333,78.8167,67.37,59,27,3.69,scattered clouds
348,Kaili,ID,-3.4626,120.2147,67.73,88,43,2.98,scattered clouds
349,Cidreira,BR,-30.1811,-50.2056,75.45,55,2,8.7,clear sky
350,Ossora,RU,59.2353,163.0719,19.31,93,94,4.94,overcast clouds
351,Ibiapina,BR,-3.9233,-40.8894,89.91,24,42,7.18,scattered clouds
352,Nabire,ID,-3.3667,135.4833,75.74,92,100,3.8,overcast clouds
353,Puerto Escondido,MX,15.85,-97.0667,86.83,62,20,4.61,few clouds
354,Muzhi,RU,65.3667,64.6667,20.14,83,96,6.51,overcast clouds
355,Klaksvik,FO,62.2266,-6.589,47.32,79,36,15.97,scattered clouds
356,Annau,TM,37.8876,58.516,45.9,100,90,2.3,light intensity drizzle
357,Howard Springs,AU,-12.497,131.047,85.91,94,6,3.96,clear sky
358,Loandjili,CG,-4.7561,11.8578,78.91,83,75,9.22,light rain
359,Panuco,MX,22.05,-98.1667,89.78,48,19,10.4,few clouds
360,Srednekolymsk,RU,67.45,153.6833,-8.3,98,82,2.62,broken clouds
361,Codrington,AU,-38.2667,141.9667,54.36,95,38,6.22,light rain
362,Lagoa,PT,39.05,-27.9833,67.21,69,100,20.74,overcast clouds
363,Kotka,FI,60.4664,26.9458,45.32,93,100,16.64,light rain
364,Chau Doc,VN,10.7,105.1167,76.35,88,99,3.56,overcast clouds
365,Sobolevo,RU,54.4299,31.8996,41.36,88,93,11.27,overcast clouds
366,Vardo,NO,70.3705,31.1107,33.78,64,20,14.97,few clouds
367,Praya,CV,14.9215,-23.5087,86.54,62,75,17.27,broken clouds
368,Tiarei,PF,-17.5333,-149.3333,80.62,77,59,7.31,light rain
369,Mana,GF,5.6592,-53.7767,84.6,70,12,10.6,few clouds
370,Bageshwar,IN,29.85,79.7667,53.46,63,0,3.91,clear sky
371,Rawson,AR,-43.3002,-65.1023,79.65,29,43,3.98,scattered clouds
372,Prado,BR,-17.3411,-39.2208,80.33,63,69,10.67,broken clouds
373,Broken Hill,AU,-31.95,141.4333,71.31,60,90,27.63,overcast clouds
374,Souillac,MU,-20.5167,57.5167,73.36,78,20,5.75,few clouds
375,Chemin Grenier,MU,-20.4872,57.4656,72.57,70,21,9.42,few clouds
376,Nishihara,JP,26.1842,127.7558,72.68,74,20,4.61,few clouds
377,Karratha,AU,-20.7377,116.8463,74.32,41,1,10.45,clear sky
378,Antofagasta,CL,-23.65,-70.4,63.68,57,5,8.16,clear sky
379,Lavrentiya,RU,65.5833,-171.0,14.05,74,75,8.1,broken clouds
380,San Antonio,US,29.4241,-98.4936,79.52,27,1,1.99,clear sky
381,Neuquen,AR,-38.9516,-68.0591,84.09,21,0,9.22,clear sky
382,Shingu,JP,33.7333,135.9833,55.81,78,2,6.73,clear sky
383,Warsaw,PL,52.2298,21.0118,56.91,74,75,1.01,broken clouds
384,Suyan,PH,6.0603,125.3853,75.6,91,94,2.73,overcast clouds
385,Smithers,CA,54.7804,-127.1743,39.52,87,90,6.91,light rain
386,Ust-Kulom,RU,61.6864,53.6902,33.21,98,100,7.43,light snow
387,Terney,RU,45.0503,136.6092,45.66,75,98,8.01,overcast clouds
388,Rio Grande,BR,-32.035,-52.0986,93.31,63,0,9.04,clear sky
389,Sioux Lookout,CA,50.1001,-91.917,44.98,70,90,9.22,overcast clouds
390,Malanje,AO,-9.5402,16.341,72.68,65,73,4.56,light rain
391,Bloomfield,US,40.8068,-74.1854,64.56,65,75,5.99,broken clouds
392,Asau,RO,46.4333,26.4,48.76,57,15,2.75,few clouds
393,Akureyri,IS,65.6835,-18.0878,35.53,100,90,2.3,overcast clouds
394,Victoria,HK,22.2855,114.1577,78.85,82,88,3.0,light rain
395,Valparaiso,CL,-33.0393,-71.6273,61.03,73,75,5.75,mist
396,Bay Roberts,CA,47.5999,-53.2648,45.03,73,100,11.01,overcast clouds
397,Paamiut,GL,61.994,-49.6678,32.25,72,34,12.17,scattered clouds
398,Samarai,PG,-10.6167,150.6667,80.51,82,55,14.03,broken clouds
399,North Platte,US,41.1239,-100.7654,56.01,51,1,14.0,clear sky
400,Ialibu,PG,-6.2821,143.9935,56.79,97,91,0.96,overcast clouds
401,Rio Gallegos,AR,-51.6226,-69.2181,66.25,30,40,26.46,scattered clouds
402,Mangochi,MW,-14.4782,35.2645,77.67,69,90,2.17,overcast clouds
403,Norman Wells,CA,65.282,-126.8329,21.24,86,75,2.3,light snow
404,Pasighat,IN,28.0667,95.3333,67.78,77,0,3.56,clear sky
405,Pahrump,US,36.2083,-115.9839,66.11,40,0,1.99,clear sky
406,Miri,MY,4.4148,114.0089,78.94,94,40,3.44,scattered clouds
407,Kahului,US,20.8947,-156.47,77.85,84,20,0.0,few clouds
408,Medicine Hat,CA,50.0501,-110.6683,54.21,45,75,7.0,broken clouds
409,Ostrovnoy,RU,68.0531,39.5131,28.49,75,90,9.44,light snow
410,Shanghai,CN,31.2222,121.4581,61.93,81,5,4.47,light rain
411,Sibolga,ID,1.7427,98.7792,76.19,90,99,2.19,overcast clouds
412,Podor,MR,16.6527,-14.9587,98.55,26,0,4.61,clear sky
413,Najran,SA,17.4924,44.1277,75.85,22,1,3.47,clear sky
414,Dwarka,IN,22.2394,68.9678,81.99,57,39,8.57,scattered clouds
415,Bambanglipuro,ID,-7.95,110.2833,76.89,87,100,5.1,overcast clouds
416,Saint-Philippe,RE,-21.3585,55.7679,72.99,78,51,10.96,broken clouds
417,Maxixe,MZ,-23.8597,35.3472,75.02,73,40,6.91,light rain
418,Manati,PR,18.4275,-66.4921,90.41,72,3,8.12,clear sky
419,Iqaluit,CA,63.7506,-68.5145,33.53,80,40,3.0,scattered clouds
420,Beringovskiy,RU,63.05,179.3167,7.14,88,96,17.63,overcast clouds
421,Bonthe,SL,7.5264,-12.505,81.43,75,54,9.93,broken clouds
422,Saint-Joseph,RE,-21.3667,55.6167,71.98,78,38,7.58,scattered clouds
423,Bjornevatn,NO,69.6672,29.9847,29.82,74,0,9.22,clear sky
424,Cayenne,GF,4.9333,-52.3333,89.64,78,75,5.01,broken clouds
425,Bandar,ID,2.05,99.75,72.99,96,56,2.28,broken clouds
426,Nikel,RU,69.4128,30.222,24.98,89,61,5.35,broken clouds
427,Mackenzie,CA,55.2999,-123.1698,39.42,81,90,10.36,overcast clouds
428,Anadyr,RU,64.75,177.4833,-3.5,76,75,5.99,broken clouds
429,De Aar,ZA,-30.6497,24.0123,71.55,52,100,4.56,overcast clouds
430,Jijiga,ET,9.35,42.8,66.74,52,61,11.36,broken clouds
431,Vanavara,RU,60.34,102.2797,23.7,60,100,17.05,overcast clouds
432,Imeni Stepana Razina,RU,54.8932,44.2963,42.44,70,100,16.53,overcast clouds
433,Monzon,ES,41.9108,0.1941,65.44,51,84,2.28,broken clouds
434,Wanxian,CN,30.8039,108.3897,61.79,80,100,1.12,overcast clouds
435,Concordia,AR,-31.393,-58.0209,93.27,32,0,11.99,clear sky
436,Hulst,NL,51.28,4.0528,57.07,89,51,10.04,broken clouds
437,Baglung,NP,28.2719,83.5898,56.44,82,1,5.57,clear sky
438,Galle,LK,6.0367,80.217,77.97,86,97,8.97,overcast clouds
439,Bud,US,39.447,-86.1758,57.06,63,23,5.99,few clouds
440,Vigrestad,NO,58.5667,5.7,54.0,97,100,10.16,overcast clouds
441,Rafaela,AR,-31.2503,-61.4867,99.05,17,9,5.99,clear sky
442,Desaguadero,PE,-16.5656,-69.0417,56.26,34,39,14.34,scattered clouds
443,Mikhaylovka,RU,50.06,43.2379,36.68,44,0,8.66,clear sky
444,Grand Gaube,MU,-20.0064,57.6608,73.38,68,0,1.01,clear sky
445,Yumen,CN,40.2833,97.2,42.44,45,66,11.01,broken clouds
446,Pulandian,CN,39.3953,121.9669,46.53,73,0,4.12,clear sky
447,Bubaque,GW,11.2833,-15.8333,82.8,75,93,9.17,overcast clouds
448,Magdagachi,RU,53.45,125.8,30.04,72,15,3.44,few clouds
449,Nantucket,US,41.2835,-70.0995,55.15,92,100,47.02,light rain
450,Belen,TR,36.4891,36.2233,64.54,37,40,12.66,scattered clouds
451,Te Anau,NZ,-45.4167,167.7167,49.32,97,83,0.72,broken clouds
452,Gorontalo,ID,0.5412,123.0595,75.78,95,20,1.68,few clouds
453,Grafton,US,42.207,-71.6856,50.36,86,90,1.01,mist
454,Dryden,CA,49.7833,-92.7503,44.89,76,90,14.97,overcast clouds
455,Pavilosta,LV,56.8879,21.1859,53.55,92,100,27.11,overcast clouds
456,Lompoc,US,34.6391,-120.4579,75.56,49,1,6.91,clear sky
457,Santa Cruz,BO,-17.8,-63.1667,93.25,40,20,11.5,few clouds
458,Sahaswan,IN,28.0833,78.75,69.44,54,0,3.62,clear sky
459,Jaffna,LK,9.6685,80.0074,82.72,72,95,9.44,overcast clouds
460,Kieta,PG,-6.2167,155.6333,78.4,86,21,5.75,moderate rain
461,Okha,RU,53.5739,142.9478,38.28,93,94,8.68,overcast clouds
462,Santa Ines,BR,-3.6667,-45.38,87.26,55,74,4.32,broken clouds
463,Bilibino,RU,68.0546,166.4372,-22.45,99,63,3.04,broken clouds
464,Coquimbo,CL,-29.9533,-71.3436,62.42,73,52,9.13,broken clouds
465,Grand Island,US,40.925,-98.342,48.15,84,90,4.0,moderate rain
466,Flinders,AU,-34.5833,150.8552,59.2,89,92,1.01,overcast clouds
467,Lata,PT,40.1629,-8.3327,70.21,57,6,1.99,clear sky
468,Kichmengskiy Gorodok,RU,59.9816,45.7854,35.17,98,100,8.9,snow
469,Comodoro Rivadavia,AR,-45.8667,-67.5,76.86,23,0,29.93,clear sky
470,Bathsheba,BB,13.2167,-59.5167,84.81,70,20,13.8,few clouds
471,Kismayo,SO,-0.3582,42.5454,79.38,82,4,13.15,clear sky
472,Fare,PF,-16.7,-151.0167,79.29,76,57,6.93,broken clouds
473,Marzuq,YE,14.4,46.4667,72.14,52,6,5.73,clear sky
474,Port Hedland,AU,-20.3167,118.5667,73.45,78,0,11.5,clear sky
475,Belmonte,BR,-15.8631,-38.8828,84.2,65,32,10.76,scattered clouds
476,Ravar,IR,31.2656,56.8055,59.4,29,0,4.29,clear sky
477,Geraldton,AU,-28.7667,114.6,57.61,82,90,3.44,overcast clouds
478,Amazar,RU,53.858,120.875,32.29,72,86,3.22,overcast clouds
479,Luanda,AO,-8.8368,13.2343,77.0,83,40,8.05,light rain
480,West Bay,KY,19.3667,-81.4167,89.08,71,40,5.01,scattered clouds
481,San Patricio,US,28.017,-97.5169,87.89,17,38,25.75,scattered clouds
482,Gagnoa,CI,6.1293,-5.9437,74.35,96,67,3.47,moderate rain
483,Payo,ID,-3.7508,103.6372,73.87,93,100,2.26,overcast clouds
484,Seydi,TM,39.4816,62.9137,48.31,61,100,9.13,overcast clouds
485,Mnogovershinnyy,RU,53.9353,139.9242,34.38,98,100,6.53,light rain
486,Panguna,PG,-6.3164,155.4848,68.13,96,16,2.55,light rain
487,Jumla,NP,29.2747,82.1838,42.6,76,12,3.4,few clouds
488,Mandalgovi,MN,45.7625,106.2708,37.36,35,0,8.9,clear sky
489,Odweyne,SO,9.4092,45.064,73.44,30,0,15.86,clear sky
490,Hervey Bay,AU,-25.2986,152.8535,75.02,81,10,10.25,clear sky
491,Ygatimi,PY,-24.0833,-55.5,90.37,36,100,5.5,overcast clouds
492,Plouzane,FR,48.3833,-4.6167,59.18,88,20,20.71,few clouds
493,Barcarena,BR,-1.5058,-48.6258,78.85,67,57,8.37,broken clouds
494,La Rioja,ES,42.25,-2.5,56.98,59,11,4.54,few clouds
495,San Juan,AR,-31.5375,-68.5364,94.55,9,5,8.97,clear sky
496,Kaitangata,NZ,-46.2817,169.8464,48.36,94,42,1.07,scattered clouds
497,Monrovia,LR,6.3005,-10.7969,83.97,79,43,7.29,scattered clouds
498,Muroto,JP,33.2833,134.15,65.39,67,0,6.24,clear sky
499,Grindavik,IS,63.8424,-22.4338,42.75,87,40,8.05,scattered clouds
500,Tautira,PF,-17.7333,-149.15,80.62,79,59,10.33,light rain
501,Mangan,IN,27.5167,88.5333,59.83,66,6,7.34,clear sky
502,Altay,CN,47.8667,88.1167,38.17,48,94,6.31,overcast clouds
503,Eureka,US,40.8021,-124.1637,64.2,95,99,1.01,overcast clouds
504,Ornskoldsvik,SE,63.2909,18.7153,38.35,100,0,6.91,clear sky
505,Port Blair,IN,11.6667,92.75,81.09,83,90,8.59,overcast clouds
506,Nadym,RU,65.5333,72.5167,12.47,88,27,6.33,scattered clouds
507,Morro Bay,US,35.3658,-120.8499,73.99,55,0,1.99,clear sky
508,Polzela,SI,46.2833,15.0667,46.63,81,8,1.99,clear sky
509,Conceicao Do Mato Dentro,BR,-19.0372,-43.425,77.63,61,95,7.63,overcast clouds
510,Omsukchan,RU,62.5333,155.8,-2.22,97,76,4.61,broken clouds
511,The Valley,AI,18.217,-63.0578,87.66,62,20,11.5,few clouds
512,Arzachena,IT,41.0769,9.3887,63.84,83,100,8.97,overcast clouds
513,Guaruja,BR,-23.9931,-46.2564,83.8,57,90,5.75,light intensity drizzle
514,Wasilla,US,61.5814,-149.4394,29.43,87,90,1.01,light snow
515,Houston,US,29.7633,-95.3633,69.94,85,75,9.22,broken clouds
516,Kokopo,PG,-4.352,152.2633,77.9,85,12,7.7,light rain
517,Evensk,RU,61.95,159.2333,4.91,80,4,6.82,clear sky
518,Pechora,RU,65.1472,57.2244,23.56,94,100,12.12,snow
519,Imbituba,BR,-28.24,-48.6703,82.29,68,95,11.45,overcast clouds
520,Maumere,ID,-8.6199,122.2111,81.05,81,52,4.36,broken clouds
521,Cortez,US,37.3489,-108.5859,47.68,42,1,17.27,clear sky
522,Henties Bay,NA,-22.116,14.2845,61.86,81,52,11.79,broken clouds
523,Magadan,RU,59.5667,150.8,24.42,79,100,6.13,overcast clouds
524,Marsaxlokk,MT,35.8419,14.5431,68.61,77,20,18.41,few clouds
525,Khakhea,BW,-24.6895,23.494,65.1,91,100,11.21,heavy intensity rain
526,Tomatlan,MX,19.9333,-105.25,87.35,60,58,3.42,broken clouds
527,Port Keats,AU,-14.25,129.55,82.74,79,9,8.52,clear sky
528,Prince Albert,CA,53.2001,-105.7677,37.35,100,90,6.91,mist
529,Tagusao,PH,9.1924,117.8141,79.34,84,86,2.93,overcast clouds
530,Quatre Cocos,MU,-20.2078,57.7625,73.09,71,0,9.42,clear sky
531,Gimli,CA,50.6336,-96.9907,45.43,87,100,17.27,overcast clouds
532,Paciran,ID,-6.8767,112.3761,81.16,82,96,5.46,overcast clouds
533,Bridgetown,BB,13.1,-59.6167,84.69,70,20,13.8,few clouds
534,Jiayuguan,CN,39.8167,98.3,41.86,39,41,4.79,scattered clouds
535,Vanimo,PG,-2.6741,141.3028,79.03,87,99,4.12,overcast clouds
536,Canberra,AU,-35.2835,149.1281,51.75,85,89,5.75,overcast clouds
537,Shaoxing,CN,30.011,120.5715,62.92,78,69,1.77,broken clouds
538,Nyagan,RU,62.1406,65.3936,25.72,71,100,6.98,overcast clouds
539,Pietarsaari,FI,63.65,22.6833,42.01,99,100,8.48,light rain
540,Sinnamary,GF,5.3833,-52.95,84.65,66,11,10.74,few clouds
541,Boyle,US,37.6334,-84.8666,59.16,44,68,7.78,broken clouds
542,Poum,NC,-20.2333,164.0167,74.73,85,12,12.17,few clouds
543,Luderitz,NA,-26.6481,15.1594,64.69,69,100,4.36,overcast clouds
544,Corinto,GR,37.9407,22.9573,63.9,63,100,6.31,overcast clouds
545,Arlit,NE,18.7369,7.3853,90.34,10,2,7.78,clear sky
546,Gunjur,GM,13.2019,-16.7339,89.67,62,96,0.0,overcast clouds
547,Touros,BR,-5.1989,-35.4608,88.7,61,30,17.96,scattered clouds
548,Takoradi,GH,4.8845,-1.7554,79.47,79,66,9.08,broken clouds
549,Bom Jesus Da Lapa,BR,-13.255,-43.4181,95.25,23,0,9.64,clear sky
550,Arinos,BR,-15.9169,-46.1056,92.35,28,22,7.7,few clouds
551,Bacolod,PH,10.6667,122.95,77.95,86,94,8.16,overcast clouds
552,Bahia Blanca,AR,-38.7196,-62.2724,89.62,18,3,10.18,clear sky
553,Novobessergenevka,RU,47.1847,38.8462,43.88,46,0,5.14,clear sky
554,La Asuncion,VE,11.0333,-63.8628,82.13,83,100,21.85,overcast clouds
555,Bourail,NC,-21.5667,165.4833,71.51,90,38,4.94,scattered clouds
556,Nelson,NZ,-41.2833,173.2833,57.29,90,100,1.01,overcast clouds
557,Reporoa,NZ,-38.4333,176.35,57.42,99,100,2.1,light rain
558,Westport,US,41.1415,-73.3579,61.2,79,90,1.01,overcast clouds
559,Ayame,CI,5.6083,-3.1563,76.39,91,95,6.04,light rain
560,Olot,ES,42.181,2.4901,59.29,64,85,1.77,overcast clouds
561,Byron Bay,AU,-28.65,153.6167,73.35,94,26,8.01,scattered clouds
562,Alexandria,EG,31.2156,29.9553,74.32,68,61,14.67,broken clouds
563,Tazovskiy,RU,67.4667,78.7,1.92,95,73,5.32,broken clouds
564,Boyabat,TR,41.4689,34.7667,48.11,75,0,2.91,clear sky
565,Saurimo,AO,-9.6608,20.3916,66.76,88,88,2.89,light rain
566,Baturaja,ID,-4.1333,104.1667,74.32,96,99,2.73,overcast clouds
567,Calama,CL,-22.4667,-68.9333,73.89,11,0,16.11,clear sky
568,Pirganj,BD,25.8523,88.3618,71.71,74,0,5.32,clear sky
569,Udachnyy,RU,66.4167,112.4,19.13,96,100,6.4,light snow
570,Gubkinskiy,RU,64.434,76.5026,8.73,95,49,9.48,scattered clouds
571,Newport,GB,51.5877,-2.9984,60.84,80,94,18.68,overcast clouds
572,Krasnoselkup,RU,65.7,82.4667,10.83,95,99,9.06,overcast clouds
573,Arkhangelsk,RU,64.5401,40.5433,32.11,93,90,8.95,overcast clouds
574,Morant Bay,JM,17.8815,-76.4093,87.62,70,86,9.75,overcast clouds
575,Abapo,BO,-18.8333,-63.4667,92.66,18,55,10.67,broken clouds
576,Berlevag,NO,70.8578,29.0864,30.15,74,75,11.5,light shower snow
577,Chake Chake,TZ,-5.2459,39.7666,76.28,81,7,6.78,clear sky
578,Angoche,MZ,-16.2325,39.9086,78.15,73,4,14.0,clear sky
579,Krasnomayskiy,RU,57.6194,34.4099,42.89,81,100,8.72,overcast clouds
580,Venice,US,27.0998,-82.4543,87.06,66,66,5.99,broken clouds
581,Orchard Homes,US,46.8633,-114.0484,46.33,78,90,1.01,overcast clouds
582,Manicore,BR,-5.8092,-61.3003,82.69,83,90,3.02,light rain
583,Mayo,US,38.8876,-76.5119,71.19,64,1,15.01,clear sky
584,Boguchany,RU,58.3814,97.4531,26.26,64,73,11.68,broken clouds
585,Matara,LK,5.9485,80.5353,76.66,90,88,7.94,overcast clouds
586,Izumo,JP,35.3667,132.7667,53.55,77,2,1.74,clear sky
587,Pochutla,MX,15.7432,-96.4661,91.22,56,52,7.45,broken clouds
588,High Rock,BS,26.6208,-78.2833,82.42,60,18,14.29,few clouds
589,Kunashak,RU,55.7032,61.5498,32.52,66,100,7.87,overcast clouds
590,Zhicheng,CN,30.2956,111.5047,61.47,68,71,3.89,broken clouds
591,La Libertad,EC,-2.2333,-80.9,74.86,83,90,10.36,overcast clouds
592,Urumqi,CN,43.801,87.6005,45.55,43,0,6.71,clear sky
593,Portland,US,45.5234,-122.6762,56.61,90,75,1.01,broken clouds
594,Yankton,US,42.8711,-97.3973,53.11,100,90,0.0,mist
595,Kenai,US,60.5544,-151.2583,31.08,86,90,0.0,overcast clouds
596,Dudinka,RU,69.4058,86.1778,-6.56,98,94,8.99,overcast clouds
597,Mandan,US,46.8267,-100.8896,52.03,81,1,12.66,clear sky
598,Bhaderwah,IN,32.9784,75.7186,47.68,60,0,2.73,clear sky
599,Kargasok,RU,59.0556,80.8572,24.73,85,8,9.46,clear sky
600,Evanston,US,42.0411,-87.6901,56.8,60,40,1.01,scattered clouds
601,Pinawa,CA,50.1489,-95.8811,42.57,92,100,10.25,overcast clouds
602,Barroquinha,BR,-3.0189,-41.1361,91.18,48,27,14.38,scattered clouds
603,Bontang,ID,0.1333,117.5,79.09,86,62,7.2,broken clouds
604,Turukhansk,RU,65.8167,87.9833,15.51,92,100,13.96,light snow
605,Vostok,RU,46.4856,135.8833,33.91,95,100,2.66,light snow
606,Shenjiamen,CN,29.9576,122.298,66.45,59,42,10.27,scattered clouds
607,Kishanganj,IN,26.1167,87.9333,71.71,74,0,5.28,clear sky
608,Nizwa,OM,22.9333,57.5333,76.23,67,83,12.55,broken clouds
609,Cedar City,US,37.6775,-113.0619,46.4,59,1,6.91,clear sky
610,Doha,QA,25.2867,51.5333,84.51,59,0,2.3,clear sky
611,Hualmay,PE,-11.0964,-77.6139,69.69,69,22,11.39,few clouds
612,Lauf,DE,48.65,8.1333,53.19,89,0,2.3,clear sky
613,Ust-Kut,RU,56.7938,105.7672,29.97,65,58,8.9,broken clouds
614,Pailon,BO,-17.65,-62.75,94.68,23,29,5.23,scattered clouds
615,Akyab,MM,20.15,92.9,78.22,83,98,4.09,overcast clouds
616,Mayumba,GA,-3.432,10.6554,76.12,87,96,7.29,overcast clouds
617,Kampot,KH,10.6167,104.1833,78.85,84,100,3.09,overcast clouds
618,Port Augusta,AU,-32.5,137.7667,62.71,81,24,4.32,few clouds
619,Sapele,NG,5.8941,5.6767,77.7,90,95,4.9,light rain
620,Sterling,US,39.0062,-77.4286,69.96,63,1,1.99,clear sky
621,Benito Juarez,MX,19.385,-99.165,75.0,39,1,3.0,clear sky
622,Apen,DE,53.2167,7.8,58.15,78,100,11.56,overcast clouds
623,Lipin Bor,RU,60.2622,37.9763,41.54,90,100,14.7,overcast clouds
624,Namibe,AO,-15.1961,12.1522,67.37,77,41,9.62,scattered clouds
625,Clyde,US,41.3042,-82.9752,53.92,86,100,5.97,overcast clouds
626,Tinskoy,RU,56.1525,96.9161,28.4,56,41,7.45,scattered clouds
627,Gushikawa,JP,26.3544,127.8686,72.63,82,1,3.44,clear sky
628,Ambulu,ID,-8.345,113.6058,76.33,93,94,2.77,overcast clouds
629,Lappeenranta,FI,61.0587,28.1887,42.85,93,90,3.44,shower rain
630,Amparafaravola,MG,-17.5833,48.2167,65.82,84,0,3.56,clear sky
631,Komsomolsk-Na-Amure,RU,50.552,137.0152,37.94,94,100,12.88,overcast clouds
632,Aksarka,RU,66.5606,67.7975,9.32,94,27,4.43,scattered clouds
633,Vestmannaeyjar,IS,63.4427,-20.2734,43.79,81,20,17.27,few clouds
634,Takab,IR,36.4009,47.1133,41.83,56,68,2.98,broken clouds
635,Dingle,PH,10.9995,122.6711,75.56,93,100,5.91,heavy intensity rain
636,Saint Anthony,US,45.0205,-93.218,52.66,73,90,4.0,overcast clouds
637,Saint-Ambroise,CA,48.5501,-71.3324,48.58,57,93,3.44,overcast clouds
638,Verkhnevilyuysk,RU,63.4453,120.3167,31.8,87,100,11.52,light snow
639,Goderich,CA,43.7501,-81.7165,59.04,76,95,4.61,overcast clouds
640,Varkkallai,IN,8.7341,76.7067,78.58,88,98,9.06,overcast clouds
641,Gisborne,NZ,-38.6533,178.0042,61.95,88,96,6.93,overcast clouds
642,Channel-Port Aux Basques,CA,47.5702,-59.1367,47.89,64,100,22.26,overcast clouds
643,Vila Do Maio,CV,15.1333,-23.2167,86.79,75,83,16.98,broken clouds
644,Nelidovo,RU,56.2211,32.7774,41.02,92,100,8.1,overcast clouds
645,Grand-Santi,GF,4.25,-54.3833,93.99,37,53,1.28,broken clouds
646,Yanam,IN,16.7333,82.2167,76.95,86,6,3.2,clear sky
647,Talmenka,RU,53.8183,83.5677,27.84,59,69,4.88,broken clouds
648,Shimoda,JP,34.6667,138.95,59.11,76,94,6.58,overcast clouds
649,Mazamari,PE,-11.3258,-74.5308,90.12,44,42,0.72,scattered clouds
650,Dzilam Gonzalez,MX,21.2833,-88.9333,93.97,44,36,6.11,scattered clouds
651,Forrest City,US,35.0081,-90.7898,64.26,35,89,15.55,overcast clouds
652,Tommot,RU,58.9564,126.2925,23.95,81,99,2.95,overcast clouds
653,Moree,AU,-29.4667,149.85,62.62,59,7,11.5,clear sky
654,Ambunti,PG,-4.2365,142.8448,74.16,94,96,1.79,overcast clouds
655,Nuuk,GL,64.1835,-51.7216,30.81,69,40,8.05,scattered clouds
656,Minab,IR,27.1467,57.0801,78.3,63,13,4.09,few clouds
657,Druzhba,UA,52.0428,33.9453,39.88,86,85,6.98,overcast clouds
658,Santiago,CL,-33.4569,-70.6483,80.04,38,0,9.22,clear sky
659,Caldwell,US,43.6629,-116.6874,57.99,71,75,0.0,broken clouds
660,Adre,TD,13.4667,22.2,83.17,26,8,3.96,clear sky
661,Hayden,US,47.766,-116.7866,50.97,67,20,10.36,few clouds
662,Sechura,PE,-5.5569,-80.8222,77.94,56,94,14.16,overcast clouds
663,Namtsy,RU,62.7161,129.6658,24.91,96,94,5.57,overcast clouds
664,Salamiyah,SY,35.0113,37.0532,69.13,36,7,3.02,clear sky
665,Gobo,JP,33.8833,135.15,58.98,75,0,10.27,clear sky
666,Derzhavinsk,KZ,51.1,66.3167,33.33,43,13,10.27,few clouds
667,Mwinilunga,ZM,-11.7358,24.4293,73.71,52,78,5.79,broken clouds
668,Paita,PE,-5.0892,-81.1144,73.96,69,93,17.05,overcast clouds
669,Okhotsk,RU,59.3833,143.3,19.26,87,78,7.92,broken clouds
670,Sivaki,RU,52.6333,126.75,30.54,81,5,5.06,clear sky
671,Marrakesh,MA,31.6315,-8.0083,77.07,44,20,5.75,few clouds
672,Solok,ID,-0.7918,100.6593,72.55,86,34,1.66,scattered clouds
673,Bristol,US,41.8334,-71.1662,51.1,95,90,1.01,light rain
674,Owensboro,US,37.7742,-87.1133,62.19,47,1,11.5,clear sky
675,Kedainiai,LT,55.2883,23.9747,52.27,87,100,20.62,overcast clouds
676,Mutoko,ZW,-17.397,32.2268,66.88,62,19,11.86,few clouds
677,Kaeo,NZ,-35.1,173.7833,58.32,95,100,0.65,overcast clouds
678,Mazagao,BR,-0.115,-51.2894,95.05,45,99,6.22,overcast clouds
679,Kuala Terengganu,MY,5.3302,103.1408,78.75,94,40,1.14,scattered clouds
680,Swedru,GH,5.5371,-0.6998,82.31,84,29,6.06,scattered clouds
681,Guerrero Negro,MX,27.9769,-114.0611,75.76,38,0,2.57,clear sky
682,Taoudenni,ML,22.6783,-3.9836,91.98,18,57,13.65,broken clouds
683,Hoi An,VN,15.8794,108.335,76.96,90,98,3.06,overcast clouds
684,Yoichi,JP,43.2039,140.7703,53.22,89,84,6.73,broken clouds
685,Los Llanos De Aridane,ES,28.6585,-17.9182,69.55,71,20,1.99,few clouds
686,Karymskoye,RU,51.6167,114.35,34.29,67,16,2.1,few clouds
687,Andenes,NO,69.3143,16.1194,37.38,70,0,25.32,clear sky
