City_ID,City,Country,Max Temp,Current Description,Lat,Lng,Hotel Name
0,Atuona,PF,77.54,scattered clouds,-9.8,-139.0333,Villa Enata
4,Lebu,CL,58.12,clear sky,-37.6167,-73.65,Hostal Las Lilas
5,Hermanus,ZA,72.81,light rain,-34.4187,19.2345,Misty Waves Boutique Hotel
7,Klamath Falls,US,53.49,few clouds,42.2249,-121.7817,"Holiday Inn Express & Suites Klamath Falls Central, an IHG Hotel"
8,Avarua,CK,71.65,light rain,-21.2078,-159.775,Paradise Inn
9,Georgetown,MY,81.9,scattered clouds,5.4112,100.3354,Cititel Penang
10,Rikitea,PF,73.29,broken clouds,-23.1203,-134.9692,People ThankYou
15,Presidente Epitacio,BR,87.73,overcast clouds,-21.7633,-52.1156,Hotel Itaverá
17,Ewo,CG,72.73,overcast clouds,-0.8725,14.8206,Residence Elonda Ewo
18,Ponta Do Sol,PT,74.71,few clouds,32.6667,-17.1,Hotel do Campo
20,Butaritari,KI,82.85,overcast clouds,3.0707,172.7902,Isles Sunset Lodge
21,Bluff,NZ,51.46,scattered clouds,-46.6,168.3333,Bluff Homestead - Guesthouse & Campervan Park
22,Atar,MR,78.35,broken clouds,20.5169,-13.0499,Oumou Elghoura
23,Cabo San Lucas,MX,86.5,clear sky,22.8909,-109.9124,Hotel Tesoro Los Cabos
24,Douentza,ML,94.37,clear sky,14.9951,-2.9517,Ogomono Doumbo
25,Hastings,GB,59.38,broken clouds,50.8552,0.5729,Zanzibar Hotel
27,Ushuaia,AR,55.06,few clouds,-54.8,-68.3,Albatros Hotel
30,Isangel,VU,75.58,overcast clouds,-19.55,169.2667,Tanna Lodge
31,Punta Arenas,CL,55.51,clear sky,-53.15,-70.9167,Hotel Dreams Del Estrecho
32,Port Hardy,CA,50.0,broken clouds,50.6996,-127.4199,Airport Inn
33,Margate,GB,60.04,overcast clouds,51.3813,1.3862,Premier Inn Margate hotel
36,Vila Franca Do Campo,PT,68.41,overcast clouds,37.7167,-25.4333,Pestana Bahia Praia
37,Chester,US,65.88,broken clouds,40.1254,-75.8749,"Holiday Inn Morgantown - Reading Area, an IHG Hotel"
38,Sampit,ID,75.58,broken clouds,-2.5333,112.95,Aquarius Boutique Hotel Sampit
39,Marawi,PH,64.65,overcast clouds,7.9986,124.2928,Derogongan Residence
40,Emerald,AU,73.54,scattered clouds,-23.5333,148.1667,The Irish Village
41,Port Alfred,ZA,67.1,overcast clouds,-33.5906,26.891,The Halyards Hotel
42,Machali,CL,76.28,clear sky,-34.1833,-70.6667,Mining House
43,Hithadhoo,MV,83.08,few clouds,-0.6,73.0833,Scoop Guest House
44,Wadi Musa,JO,61.88,clear sky,30.3222,35.4793,Petra Palace Hotel
46,Banes,CU,90.21,few clouds,20.9625,-75.7186,Hostal Iván y yailet
48,Mar Del Plata,AR,77.02,clear sky,-38.0023,-57.5575,Gran Hotel Mar del Plata
49,Allapalli,IN,67.39,clear sky,19.4167,80.0667,"Hotel IK Residency, GUEST HOUSE AC NON AC"
50,Gevrai,IN,72.18,few clouds,19.2667,75.75,Jaybhaye
53,Coahuayana,MX,87.28,broken clouds,18.7333,-103.6833,El rranchito michuacan de ocampos
54,Fortuna,US,63.93,overcast clouds,40.5982,-124.1573,Super 8 by Wyndham Fortuna
55,Castro,BR,70.39,overcast clouds,-24.7911,-50.0119,CHACARA BAILLY
56,Naze,JP,66.87,few clouds,28.3667,129.4833,オーベルジュ・アガルイ
58,Mount Gambier,AU,55.31,light intensity shower rain,-37.8333,140.7667,The Commodore
59,Bengkulu,ID,75.88,overcast clouds,-3.8004,102.2655,Grage Hotel Bengkulu
60,Cape Town,ZA,70.12,few clouds,-33.9258,18.4232,Southern Sun Waterfront Cape Town
61,Ahipara,NZ,58.96,overcast clouds,-35.1667,173.1667,Ahipara Holiday Park
62,Chicama,PE,63.14,scattered clouds,-7.8447,-79.1469,Balihai Bungalows
63,Mitsamiouli,KM,79.09,few clouds,-11.3847,43.2844,Foyer ADM
65,Antalaha,MG,71.49,clear sky,-14.9003,50.2788,Hotel Vitasoa
66,Ebolowa,CM,70.65,light rain,2.9,11.15,Florence Hotel Ebolowa
67,Bambous Virieux,MU,73.22,few clouds,-20.3428,57.7575,Casa Tia Villa
69,Jamestown,US,58.08,broken clouds,42.097,-79.2353,Hampton Inn & Suites Jamestown
70,Huarmey,PE,70.84,scattered clouds,-10.0681,-78.1522,Hotel Miramar
72,Palmer,US,56.46,overcast clouds,42.1584,-72.3287,Wedgewood Motel
73,East London,ZA,67.14,broken clouds,-33.0153,27.9116,Tu Casa
75,Candolim,IN,77.49,clear sky,15.5181,73.7626,Resort Terra Paraiso
79,Carlos Chagas,BR,81.0,overcast clouds,-17.7031,-40.7664,Minas Hotel
80,Vaini,TO,73.56,broken clouds,-21.2,-175.2,Keleti Beach Resort
81,Padang,ID,77.05,scattered clouds,-0.9492,100.3543,Mercure Padang
82,Hobart,AU,57.06,overcast clouds,-42.8794,147.3294,Mantra on Collins Hobart
83,Shelburne,CA,56.3,scattered clouds,44.0787,-80.2041,The Retreat at the Farm
85,Kapaa,US,72.19,clear sky,22.0752,-159.319,Sheraton Kauai Coconut Beach Resort
86,Sao Felix Do Xingu,BR,88.36,broken clouds,-6.6447,-51.995,Rio Xingu Camping
87,Kavaratti,IN,81.64,broken clouds,10.5669,72.642,Hotels in Lakshadweep Islands
88,Cururupu,BR,87.22,broken clouds,-1.8283,-44.8683,POUSADA TRAVÉS'CIA
89,Pasni,PK,78.22,clear sky,25.2631,63.471,Kashmiri Hotal
91,Qui Nhon,VN,77.36,overcast clouds,13.7667,109.2333,Hoang Yen Canary Hotel
92,Arraial Do Cabo,BR,80.56,broken clouds,-22.9661,-42.0278,Pousada Porto Praia
93,Carnarvon,AU,66.27,overcast clouds,-24.8667,113.6333,Hospitality Carnarvon
94,Manhattan Beach,US,80.31,clear sky,33.8847,-118.4109,Shade Hotel Manhattan Beach
95,Vila Velha,BR,82.35,few clouds,-20.3297,-40.2925,Quality Suites Vila Velha
97,Hilo,US,83.28,broken clouds,19.7297,-155.09,Hilo Hawaiian Hotel
98,Ribeira Grande,PT,68.4,scattered clouds,38.5167,-28.7,Quinta da Meia Eira
99,Kiama,AU,58.48,overcast clouds,-34.6833,150.8667,The Sebel Kiama Harbourside
102,Winnemucca,US,54.1,clear sky,40.973,-117.7357,Winners Inn Casino
103,Biak,ID,76.82,few clouds,-0.9131,122.8766,Penginapan Kim
107,Constitucion,CL,63.48,few clouds,-35.3333,-72.4167,Hotel Boutique Las Azucenas
108,Port-Gentil,GA,80.56,broken clouds,-0.7193,8.7815,Fengshui Residence
111,Puerto Ayora,EC,75.16,overcast clouds,-0.7393,-90.3518,Finch Bay Galapagos Hotel
113,Namatanai,PG,80.02,scattered clouds,-3.6667,152.4333,Seagulls Inn Namatani
114,Dali,CN,54.79,few clouds,25.7,100.1833,Dali Travelling With Hostel
115,Siyabuswa,ZA,71.46,broken clouds,-25.1132,29.0445,Uluju properties
117,Porto Velho,BR,86.05,light rain,-8.7619,-63.9039,Hotel Central
118,Mtwara,TZ,76.95,scattered clouds,-10.2667,40.1833,TIL Hotels Mtwara
121,Pisco,PE,68.05,clear sky,-13.7,-76.2167,Hotel San Isidro Oficial
122,Camargo,MX,72.91,clear sky,27.6667,-105.1667,Hotel Santa Fe
123,Douglas,US,55.15,moderate rain,41.3,-96.167,Hilton Garden Inn Omaha West
124,Campos Belos,BR,95.11,few clouds,-13.0367,-46.7717,Pousada Carnaúba
125,Pemba,MZ,79.5,few clouds,-12.974,40.5178,Guesthouse Samotina
127,Oriximina,BR,90.82,overcast clouds,-1.7656,-55.8661,Pousada Tia Amélia
128,Lahaina,US,77.81,few clouds,20.8783,-156.6825,Lahaina Shores Beach Resort
129,Alofi,NU,73.29,broken clouds,-19.0595,-169.9187,Taloa Heights
130,Airai,TL,62.11,overcast clouds,-8.9266,125.4092,Juvinal Martin
131,Paragominas,BR,87.49,broken clouds,-2.9667,-47.4833,INOVA
132,Labuhan,ID,80.44,overcast clouds,-6.8844,112.2051,PT PPI Lamongan Tambak C
133,Curup,ID,67.08,overcast clouds,-3.4667,102.5333,Ayi The Costel
134,Buraydah,SA,81.05,overcast clouds,26.326,43.975,فندق راحة السلام
135,Bethel,US,58.73,overcast clouds,41.3712,-73.414,Courtyard by Marriott Danbury
140,Faanui,PF,78.96,light rain,-16.4833,-151.75,Bora-Bora Pearl Beach Resort & Spa
141,Kavieng,PG,80.91,moderate rain,-2.5744,150.7967,Nusa Island Retreat
142,San Carlos De Bariloche,AR,74.44,clear sky,-41.1456,-71.3082,Hotel Patagonia
143,Port Elizabeth,ZA,67.1,thunderstorm with light rain,-33.918,25.5701,39 On Nile Guest House
145,Nemuro,JP,54.14,overcast clouds,43.3236,145.575,Hotel Nemuro Kaiyoutei
148,Yulara,AU,76.84,broken clouds,-25.2406,130.9889,Desert Gardens Hotel - Ayers Rock Resort
150,Inhambane,MZ,75.18,light rain,-23.865,35.3833,Oceano
151,Goroka,PG,58.3,overcast clouds,-6.0834,145.3873,Bird of Paradise Hotel & Apartments
152,Woodward,US,58.23,overcast clouds,36.4337,-99.3904,"Holiday Inn Express & Suites Woodward Hwy 270, an IHG Hotel"
153,Mahebourg,MU,73.26,few clouds,-20.4081,57.7,Shandrani Beachcomber Resort & Spa
154,Kununurra,AU,80.58,broken clouds,-15.7667,128.7333,Hotel Kununurra
156,Sao Joao Da Barra,BR,82.49,broken clouds,-21.6403,-41.0511,Pousada Porto De Canoas
161,Culaman,PH,79.34,overcast clouds,5.9603,125.6586,Jasmin Ex House
162,Saldanha,ZA,62.65,overcast clouds,-33.0117,17.9442,Blue Bay Lodge
163,Mathathane,BW,73.26,broken clouds,-22.2687,28.7495,Selepswe Resort
165,Bredasdorp,ZA,72.28,overcast clouds,-34.5322,20.0403,Bredasdorp Country Manor
168,Inirida,CO,81.54,broken clouds,3.8653,-67.9239,Fuente del Guania Hotel de Lujo
171,Sao Francisco,BR,91.51,clear sky,-15.9486,-44.8644,Hotel Supremo
174,Denpasar,ID,78.46,few clouds,-8.65,115.2167,ASTON Denpasar Hotel & Convention Center
176,Hasaki,JP,57.6,overcast clouds,35.7333,140.8333,Hotel Sunrise Choshi
178,Lorengau,PG,81.37,broken clouds,-2.0226,147.2712,Lorengau Harbourside Hotel
179,Creel,MX,64.89,scattered clouds,27.75,-107.6333,The Lodge at Creel Hotel & SPA
180,Nouadhibou,MR,69.64,broken clouds,20.931,-17.0347,El Medina
182,Nhulunbuy,AU,77.61,clear sky,-12.2333,136.7667,East Arnhem Real Estate
184,Tottori,JP,61.34,scattered clouds,35.5,134.2333,Hotel Monarque Tottori
186,New Norfolk,AU,56.91,overcast clouds,-42.7826,147.0587,The Shingles Riverside Cottages
187,Komsomolskiy,UZ,53.02,haze,40.4272,71.7189,Ikathouse
188,Tete,MZ,89.69,clear sky,-16.1564,33.5867,Zambeze Paraíso Misterioso
190,Jiangyou,CN,57.72,overcast clouds,31.7667,104.7167,Shangping Shuyuan Inn
191,Bucerias,MX,84.18,overcast clouds,20.75,-105.3333,Royal Decameron Complex - Puerto Vallarta
192,Miranda De Ebro,ES,65.79,clear sky,42.6865,-2.947,Hospedería El Convento
194,Kruisfontein,ZA,64.89,light rain,-34.0033,24.7314,Oyster Bay House Rental
195,Coihaique,CL,62.55,broken clouds,-45.5752,-72.0662,Diego De Almagro Coyhaique
196,Sao Filipe,CV,79.43,broken clouds,14.8961,-24.4956,Hotel Xaguate
197,Roseburg,US,58.62,mist,43.2165,-123.3417,"Holiday Inn Express Roseburg, an IHG Hotel"
198,Half Moon Bay,US,67.59,haze,37.4636,-122.4286,"The Ritz-Carlton, Half Moon Bay"
199,Cabedelo,BR,88.47,few clouds,-6.9811,-34.8339,Hotel Pigalle
200,Mirpur Sakro,PK,75.42,clear sky,24.5474,67.6277,Ali muhammad’s house
202,Victor Harbor,AU,61.81,overcast clouds,-35.5667,138.6167,McCracken Country Club
203,Yei,SS,70.03,broken clouds,4.095,30.6779,City Link Hotel
205,Saint George,US,59.47,clear sky,37.1041,-113.5841,Best Western Plus Abbey Inn
206,Brightwater,NZ,57.69,light rain,-41.3833,173.1167,Marama Vineyard & Accomodation
208,Salalah,OM,78.89,clear sky,17.0151,54.0924,"HAMDAN PLAZA HOTEL SALALAH, an HTG Hotel"
210,Kulhudhuffushi,MV,81.64,overcast clouds,6.6221,73.07,Haajy Guest House 1
211,Cocorit,MX,82.74,clear sky,27.5833,-109.9667,Kaba Motel
213,Dalbandin,PK,67.19,clear sky,28.8947,64.4101,Gidaan Guest House
214,Pathein,MM,76.39,broken clouds,16.7833,94.7333,New Pammawaddy Hotel
215,Dunedin,NZ,56.8,broken clouds,-45.8742,170.5036,Scenic Hotel Southern Cross
216,Neiafu,TO,75.88,light rain,-18.65,-173.9833,Mystic Sands Beachfront Accommodation
217,Maniwaki,CA,53.98,overcast clouds,46.3834,-75.966,Centre Chateau Logue
218,Rosa Zarate,EC,85.32,overcast clouds,0.3333,-79.4667,Piscinas y Recepciones Hecalash
220,Tual,ID,83.79,scattered clouds,-5.6667,132.75,Grand Vilia Hotel
221,Alta Floresta,BR,89.42,few clouds,-9.8756,-56.0861,Floresta Amazonica Hotel
222,Hambantota,LK,78.17,overcast clouds,6.1241,81.1185,Bungalow 63
224,Riyadh,SA,82.54,scattered clouds,24.6877,46.7219,"InterContinental Riyadh, an IHG Hotel"
225,Tiverton,GB,60.4,overcast clouds,50.9,-3.4833,Best Western Tiverton Hotel
227,Chuy,UY,82.36,clear sky,-33.6971,-53.4616,Nuevo Hotel Plaza
228,Altamira,BR,86.09,broken clouds,-3.2033,-52.2064,Requinte Hotel
229,Cologne,DE,58.55,few clouds,50.9333,6.95,Mauritius Hotel & Therme
230,Ushibuka,JP,64.67,clear sky,32.1906,130.0228,Hotei
231,Broome,US,56.01,few clouds,42.2506,-75.833,Chenango Valley State Park
232,Boddam,GB,57.58,overcast clouds,57.4667,-1.7833,Palace Hotel
233,Meulaboh,ID,74.05,moderate rain,4.1363,96.1285,Kost Pria
234,Kendari,ID,78.06,scattered clouds,-3.945,122.4989,Hotel Wixel
238,Sibu,MY,79.11,scattered clouds,2.3,111.8167,RH HOTEL (4 Star)
241,Caravelas,BR,81.12,overcast clouds,-17.7125,-39.2481,Pousada dos Navegantes
242,Senador Jose Porfirio,BR,86.65,broken clouds,-2.5908,-51.9542,Pousada Novo Horizonte
243,Swan Hill,AU,61.47,light rain,-35.3378,143.5544,Lazy River Motor Inn
245,Aksu,CN,50.72,clear sky,41.1231,80.2644,Pudong Holiday Hotel
246,Kloulklubed,PW,84.2,broken clouds,7.0419,134.2556,Storyboard Beach Resort
248,Ambilobe,MG,74.64,broken clouds,-13.2,49.05,Hôtel & Restaurant DIANA Ambilobe
249,Daru,PG,80.19,broken clouds,-9.0763,143.2092,Daru Lodge
251,Kamaishi,JP,55.08,scattered clouds,39.2667,141.8833,Hotel Route Inn Kamaishi
252,Saint-Francois,FR,50.68,clear sky,46.4154,3.9054,Manoir Du Bonheur
253,Utete,TZ,75.78,scattered clouds,-7.986,38.758,River View Lodge
254,Pacific Grove,US,69.42,clear sky,36.6177,-121.9166,Lovers Point Inn
255,Port Lincoln,AU,56.43,light rain,-34.7333,135.8667,Port Lincoln Hotel
256,Presidencia Roque Saenz Pena,AR,98.46,scattered clouds,-26.7852,-60.4388,Hotel Aconcagua
257,Tuy Hoa,VN,76.57,overcast clouds,13.0833,109.3,CenDeluxe Hotel Tuy Hoa
258,Morgan City,US,84.2,broken clouds,29.6994,-91.2068,Hampton Inn & Suites Morgan City
259,Lewiston,US,53.71,light rain,44.1003,-70.2148,Hilton Garden Inn Auburn Riverwatch
260,Manakara,MG,74.64,scattered clouds,-22.1333,48.0167,La Residence Manakara
261,Bereda,ES,60.55,few clouds,43.2686,-7.5406,Pazo de Verdes
263,Sikonge,TZ,74.79,broken clouds,-5.6333,32.7667,Pretoria 2 Lodge
264,Sartell,US,50.45,light rain,45.6216,-94.2069,AmericInn by Wyndham Sartell
265,San Cristobal,VE,80.78,overcast clouds,7.7669,-72.225,Posada Villaven C.A.
267,Ishigaki,JP,76.03,overcast clouds,24.3448,124.1572,Hotel Peace Land Ishigakijima
268,Hobyo,SO,81.18,broken clouds,5.3505,48.5268,Halane Hotel and Restaurent
269,Bilma,NE,87.17,clear sky,18.6853,12.9164,Expeditions Ténére voyages
270,Mumbwa,ZM,81.46,scattered clouds,-14.9783,27.0619,Mumbwa Motel
271,Talara,PE,74.16,clear sky,-4.5772,-81.2719,Hostal Oro Negro
272,Camacha,PT,69.22,scattered clouds,33.0833,-16.3333,Hotel Porto Santo & Spa
274,Roald,NO,55.09,scattered clouds,62.5833,6.1333,Flem Cabins
275,Kiunga,PG,73.44,light rain,-6.1219,141.2906,Airport Lodge Kiunga
276,Katsuura,JP,62.62,overcast clouds,35.1333,140.3,Katsuura Hotel Mikazuki
277,Mackay,AU,72.05,few clouds,-21.15,149.2,International Lodge Motel
279,Ewa Beach,US,78.01,scattered clouds,21.3156,-158.0072,Uncle Junior Robert
280,Moron,AR,96.03,clear sky,-34.6534,-58.6198,Hotel Morón
281,Port Pirie,AU,60.89,few clouds,-33.1833,138.0167,John Pirie Motor Inn
283,Suez,EG,74.01,clear sky,29.9737,32.5263,Green House
284,Harper,LR,78.58,broken clouds,4.375,-7.7169,Screensaver
286,Brae,GB,53.51,broken clouds,60.3964,-1.353,Busta House Hotel
287,Mastic Beach,US,60.04,overcast clouds,40.7668,-72.8521,Brushwood House by Smith Point Beach
288,Banjar,ID,78.66,overcast clouds,-8.19,114.9675,The Hamsa Resort
289,Jatai,BR,84.92,overcast clouds,-17.8814,-51.7144,La Vitre Hotel
290,Nanning,CN,72.05,overcast clouds,22.8167,108.3167,Nanning Travelling With Hostel
292,Phan Thiet,VN,75.88,overcast clouds,10.9333,108.1,Hotel Saigon-PT
293,Daphne,US,76.86,clear sky,30.6035,-87.9036,Amricans Best Inn
296,Ixtapa,MX,83.43,overcast clouds,20.7,-105.2,Hotel Plaza Providencia
297,Yatou,CN,51.89,clear sky,37.15,122.3833,GreenTree Hotel Rongcheng Bus Station
299,Makakilo City,US,76.6,overcast clouds,21.3469,-158.0858,Marriott's Ko Olina Beach Club
300,Svetlyy,RU,53.65,overcast clouds,54.675,20.1347,"Gostinitsa-Kafe, Alena"
301,Manado,ID,75.97,scattered clouds,1.487,124.8455,Aryaduta Hotel
303,Yokadouma,CM,67.33,moderate rain,3.5167,15.05,Hôtel De Ville De Yokadouma
304,Ancud,CL,64.42,broken clouds,-41.8697,-73.8203,Hotel Arena Gruesa
308,Caiaponia,BR,85.1,overcast clouds,-16.9567,-51.8103,HOTEL PALACE AVENIDA & CAIAPÓ TURISMO
311,Saint-Pierre,RE,73.08,overcast clouds,-21.3393,55.4781,Lindsey Hôtel
313,Dicabisagan,PH,77.14,broken clouds,17.0818,122.4157,Nancy Montanes Bernardo
314,Gat,IL,72.81,clear sky,31.61,34.7642,OlusHome
315,Praia Da Vitoria,PT,70.05,scattered clouds,38.7333,-27.0667,Hotel Branco I
316,Taunggyi,MM,60.49,broken clouds,20.7833,97.0333,True Treasure Hotel
317,Belvedere Marittimo,IT,55.94,scattered clouds,39.6179,15.8617,La Marinella
319,Hondo,JP,59.95,clear sky,32.45,130.2,ホテル河丁
320,Porto Novo,BJ,84.02,overcast clouds,6.4965,2.6036,Tour Eiffel Hotel Benin
321,Gizo,SB,82.54,scattered clouds,-8.103,156.8419,Imagination Island
322,Bairnsdale,AU,53.71,overcast clouds,-37.8333,147.6167,Town Central Motel
323,Ucluelet,CA,50.31,light rain,48.9329,-125.5528,Black Rock Oceanfront Resort
326,Marienburg,PL,56.95,overcast clouds,54.0359,19.0266,Hotel Centrum Malbork
327,Jieshi,CN,74.57,light rain,22.8134,115.8257,Yuehai Hotel
328,Kalamnuri,IN,68.61,clear sky,19.6667,77.3333,खंडोबा राव शेषराव गडदे
329,Laguna,US,68.23,broken clouds,38.421,-121.4238,"Holiday Inn Express & Suites Elk Grove Central - Hwy 99, an IHG Hotel"
334,Suluq,LY,71.13,broken clouds,31.6682,20.2521,منزل عبدالواحد خليفة الفاخري
335,Ponta Delgada,PT,68.72,broken clouds,37.7333,-25.6667,Vila Nova Hotel
337,San Quintin,MX,70.36,clear sky,30.4833,-115.95,Don Eddie's Sport Fishing Center
338,Marsa Matruh,EG,73.92,overcast clouds,31.3525,27.2453,Beau Site
340,Aberdeen,GB,59.49,overcast clouds,57.1437,-2.0981,Premier Inn Aberdeen City Centre hotel
341,Eyl,SO,80.42,broken clouds,7.9803,49.8164,Amiin Hotel
342,La Paz,BO,62.58,scattered clouds,-16.5,-68.15,Hotel Sagarnaga
344,Tikrit,IQ,73.72,few clouds,34.6071,43.6782,عماره العبطه
345,Port Moresby,PG,76.41,scattered clouds,-9.4431,147.1797,Lamana Hotel (Port Moresby)
346,Sabang,ID,81.14,overcast clouds,5.8933,95.3214,Hotel Citra
347,Chichli,IN,67.37,scattered clouds,22.8333,78.8167,जयश टेंट हाउस चीचली
349,Cidreira,BR,75.45,clear sky,-30.1811,-50.2056,Hotel Castelo
351,Ibiapina,BR,89.91,scattered clouds,-3.9233,-40.8894,Hotel Pinheiro
352,Nabire,ID,75.74,overcast clouds,-3.3667,135.4833,Hotel Nusantara Nabire
353,Puerto Escondido,MX,86.83,few clouds,15.85,-97.0667,Aldea del Bazar Hotel and Spa
357,Howard Springs,AU,85.91,clear sky,-12.497,131.047,buffalo beach hostel
358,Loandjili,CG,78.91,light rain,-4.7561,11.8578,Résidence ARCHANGE
359,Panuco,MX,89.78,few clouds,22.05,-98.1667,Hotel Plaza
361,Codrington,AU,54.36,light rain,-38.2667,141.9667,Codrington Gardens Bed And Breakfast
362,Lagoa,PT,67.21,overcast clouds,39.05,-27.9833,Casa Das Faias
364,Chau Doc,VN,76.35,overcast clouds,10.7,105.1167,JADE AND SAPPHIRE GUESTHOUSE
367,Praya,CV,86.54,broken clouds,14.9215,-23.5087,LT Aparthotel
368,Tiarei,PF,80.62,light rain,-17.5333,-149.3333,Le Rocher de Tahiti
369,Mana,GF,84.6,few clouds,5.6592,-53.7767,LE SAMANA
370,Bageshwar,IN,53.46,clear sky,29.85,79.7667,Danu Janral Store
371,Rawson,AR,79.65,scattered clouds,-43.3002,-65.1023,Hosteria Sampedro
372,Prado,BR,80.33,broken clouds,-17.3411,-39.2208,INN CORNER RIVER - PRADO - BAHIA - HOUSING AND HOTEL
373,Broken Hill,AU,71.31,overcast clouds,-31.95,141.4333,Royal Exchange Hotel
374,Souillac,MU,73.36,few clouds,-20.5167,57.5167,Shanti Maurice Resort & Spa
375,Chemin Grenier,MU,72.57,few clouds,-20.4872,57.4656,Shanti Maurice Resort & Spa
376,Nishihara,JP,72.68,few clouds,26.1842,127.7558,Minshuku Agaihama
377,Karratha,AU,74.32,clear sky,-20.7377,116.8463,ibis Styles Karratha
378,Antofagasta,CL,63.68,clear sky,-23.65,-70.4,"Holiday Inn Express Antofagasta, an IHG Hotel"
380,San Antonio,US,79.52,clear sky,29.4241,-98.4936,Drury Plaza Hotel San Antonio Riverwalk
381,Neuquen,AR,84.09,clear sky,-38.9516,-68.0591,Hotel del Comahue
382,Shingu,JP,55.81,clear sky,33.7333,135.9833,Shingu UI Hotel
383,Warsaw,PL,56.91,broken clouds,52.2298,21.0118,Hotel Metropol
388,Rio Grande,BR,93.31,clear sky,-32.035,-52.0986,Hotel Atlântico Rio Grande
390,Malanje,AO,72.68,light rain,-9.5402,16.341,Malanje Hotel
391,Bloomfield,US,64.56,broken clouds,40.8068,-74.1854,La Quinta Inn & Suites by Wyndham Clifton/Rutherford
394,Victoria,HK,78.85,light rain,22.2855,114.1577,Mini Hotel Central
395,Valparaiso,CL,61.03,mist,-33.0393,-71.6273,Hotel Ultramar
398,Samarai,PG,80.51,broken clouds,-10.6167,150.6667,Nuli Sapi
399,North Platte,US,56.01,clear sky,41.1239,-100.7654,"Holiday Inn Express & Suites North Platte, an IHG Hotel"
400,Ialibu,PG,56.79,overcast clouds,-6.2821,143.9935,Eastwood Guesthouse
401,Rio Gallegos,AR,66.25,scattered clouds,-51.6226,-69.2181,Hotel Santa Cruz
402,Mangochi,MW,77.67,overcast clouds,-14.4782,35.2645,Fort Johnstone Hotel
404,Pasighat,IN,67.78,clear sky,28.0667,95.3333,Siang Guest House
405,Pahrump,US,66.11,clear sky,36.2083,-115.9839,Best Western Pahrump Oasis
406,Miri,MY,78.94,scattered clouds,4.4148,114.0089,"Mega Hotel, Miri"
407,Kahului,US,77.85,few clouds,20.8947,-156.47,Maui Seaside Hotel
408,Medicine Hat,CA,54.21,broken clouds,50.0501,-110.6683,Sun Dek Motel
410,Shanghai,CN,61.93,light rain,31.2222,121.4581,Swissotel Grand Shanghai
411,Sibolga,ID,76.19,overcast clouds,1.7427,98.7792,Hotel Syariah CN Darussalam
412,Podor,MR,98.55,clear sky,16.6527,-14.9587,Auberge Du Tékrour
413,Najran,SA,75.85,clear sky,17.4924,44.1277,محمد هادي ال فطيح
414,Dwarka,IN,81.99,scattered clouds,22.2394,68.9678,Hotel Narayan Avezika Comfort
415,Bambanglipuro,ID,76.89,overcast clouds,-7.95,110.2833,Puri Brata
416,Saint-Philippe,RE,72.99,broken clouds,-21.3585,55.7679,"Chambres d'hôte ""La Trinité"""
417,Maxixe,MZ,75.02,light rain,-23.8597,35.3472,Oceano
418,Manati,PR,90.41,clear sky,18.4275,-66.4921,Manati World Point Inn
421,Bonthe,SL,81.43,broken clouds,7.5264,-12.505,Bonthe Holiday Village
422,Saint-Joseph,RE,71.98,scattered clouds,-21.3667,55.6167,"""Plantation Bed and Breakfast"
424,Cayenne,GF,89.64,broken clouds,4.9333,-52.3333,Hôtel Le Dronmi
429,De Aar,ZA,71.55,overcast clouds,-30.6497,24.0123,Nyibiba Guesthouse
430,Jijiga,ET,66.74,broken clouds,9.35,42.8,RAMAAS HOTEL
433,Monzon,ES,65.44,broken clouds,41.9108,0.1941,Hotel Masmonzón
434,Wanxian,CN,61.79,overcast clouds,30.8039,108.3897,7Days Inn Chongqing Shiqiaopu
435,Concordia,AR,93.27,clear sky,-31.393,-58.0209,Palmar Hotel Casino
436,Hulst,NL,57.07,broken clouds,51.28,4.0528,Hotel Hulst
437,Baglung,NP,56.44,clear sky,28.2719,83.5898,"Hotel Peace Palace, Baglung, Nepal"
438,Galle,LK,77.97,overcast clouds,6.0367,80.217,Amangalla
439,Bud,US,57.06,few clouds,39.447,-86.1758,Ted McQuinn Trust
440,Vigrestad,NO,54.0,overcast clouds,58.5667,5.7,Brusand Camping
441,Rafaela,AR,99.05,clear sky,-31.2503,-61.4867,Parra Hotel & Suites
442,Desaguadero,PE,56.26,scattered clouds,-16.5656,-69.0417,av. panamericana 264 desaguadero hotel
444,Grand Gaube,MU,73.38,clear sky,-20.0064,57.6608,Veranda Paul et Virginie Hotel & Spa
447,Bubaque,GW,82.8,overcast clouds,11.2833,-15.8333,"Casa Dora, Bubaque"
449,Nantucket,US,55.15,light rain,41.2835,-70.0995,Jared Coffin House
450,Belen,TR,64.54,scattered clouds,36.4891,36.2233,Varlıbaş Uyku Sarayı
452,Gorontalo,ID,75.78,few clouds,0.5412,123.0595,Maqna Hotel by Prasanthi
453,Grafton,US,50.36,mist,42.207,-71.6856,The Grafton Inn
455,Pavilosta,LV,53.55,overcast clouds,56.8879,21.1859,"Hotel ""Vēju paradīze"""
456,Lompoc,US,75.56,clear sky,34.6391,-120.4579,"Holiday Inn Express Lompoc, an IHG Hotel"
457,Santa Cruz,BO,93.25,few clouds,-17.8,-63.1667,Aviador Hotel Boutique
458,Sahaswan,IN,69.44,clear sky,28.0833,78.75,Lala Munna Lal Halbayi
459,Jaffna,LK,82.72,overcast clouds,9.6685,80.0074,Green Grass Hotel & Restaurant
460,Kieta,PG,78.4,moderate rain,-6.2167,155.6333,Uruna Bay Retreat
462,Santa Ines,BR,87.26,broken clouds,-3.6667,-45.38,Palace hotel
464,Coquimbo,CL,62.42,broken clouds,-29.9533,-71.3436,Punto de encuentro
466,Flinders,AU,59.2,overcast clouds,-34.5833,150.8552,Shellharbour Resort & Conference Centre
467,Lata,PT,70.21,clear sky,40.1629,-8.3327,Casa Maquia
469,Comodoro Rivadavia,AR,76.86,clear sky,-45.8667,-67.5,Austral Hotel
470,Bathsheba,BB,84.81,few clouds,13.2167,-59.5167,Atlantis Hotel
471,Kismayo,SO,79.38,clear sky,-0.3582,42.5454,Agan-Hotel
472,Fare,PF,79.29,broken clouds,-16.7,-151.0167,Maitai Lapita Village Huahine
474,Port Hedland,AU,73.45,clear sky,-20.3167,118.5667,The Esplanade Hotel
475,Belmonte,BR,84.2,scattered clouds,-15.8631,-38.8828,Pousada Monte Carmelo O Pão
476,Ravar,IR,59.4,clear sky,31.2656,56.8055,کافی نت و کامپیوترپرشین سیستم
477,Geraldton,AU,57.61,overcast clouds,-28.7667,114.6,Broadwater Mariner Resort
479,Luanda,AO,77.0,light rain,-8.8368,13.2343,Hotel Fórum
480,West Bay,KY,89.08,scattered clouds,19.3667,-81.4167,Calypso Cove
481,San Patricio,US,87.89,scattered clouds,28.017,-97.5169,"Motel 6 Sinton, TX"
482,Gagnoa,CI,74.35,moderate rain,6.1293,-5.9437,Residence Kiliyo
483,Payo,ID,73.87,overcast clouds,-3.7508,103.6372,Mess keban agung
489,Odweyne,SO,73.44,clear sky,9.4092,45.064,Eng Hiirey House
490,Hervey Bay,AU,75.02,clear sky,-25.2986,152.8535,Shelly Bay Resort
492,Plouzane,FR,59.18,few clouds,48.3833,-4.6167,Lymina
493,Barcarena,BR,78.85,broken clouds,-1.5058,-48.6258,Dos Santos Hotel
494,La Rioja,ES,56.98,few clouds,42.25,-2.5,Casa Concejos
495,San Juan,AR,94.55,clear sky,-31.5375,-68.5364,Hotel Provincial
497,Monrovia,LR,83.97,scattered clouds,6.3005,-10.7969,Sunset Inn
498,Muroto,JP,65.39,clear sky,33.2833,134.15,Oota Ryokan
500,Tautira,PF,80.62,light rain,-17.7333,-149.15,Pension Oaoa
501,Mangan,IN,59.83,clear sky,27.5167,88.5333,Hotel Mout View
503,Eureka,US,64.2,overcast clouds,40.8021,-124.1637,Eureka Inn Trademark By Wyndham
505,Port Blair,IN,81.09,overcast clouds,11.6667,92.75,"Welcomhotel By ITC Hotels, Bay Island, Port Blair"
507,Morro Bay,US,73.99,clear sky,35.3658,-120.8499,Inn at Morro Bay
509,Conceicao Do Mato Dentro,BR,77.63,overcast clouds,-19.0372,-43.425,Hotel Vista Inn
511,The Valley,AI,87.66,few clouds,18.217,-63.0578,CeBlue Villas & Beach Resort
512,Arzachena,IT,63.84,overcast clouds,41.0769,9.3887,Hotel Citti
513,Guaruja,BR,83.8,light intensity drizzle,-23.9931,-46.2564,Charme Hotel Guarujá
515,Houston,US,69.94,broken clouds,29.7633,-95.3633,"Hotel ICON, Autograph Collection"
516,Kokopo,PG,77.9,light rain,-4.352,152.2633,Kokopo Beach Bungalow Resort
519,Imbituba,BR,82.29,overcast clouds,-28.24,-48.6703,Praia Hotel Imbituba
520,Maumere,ID,81.05,broken clouds,-8.6199,122.2111,Sylvia Hotel
524,Marsaxlokk,MT,68.61,few clouds,35.8419,14.5431,Water's Edge
526,Tomatlan,MX,87.35,broken clouds,19.9333,-105.25,El Salvial
527,Port Keats,AU,82.74,clear sky,-14.25,129.55,TDC Village (Hundred Man Camp)
529,Tagusao,PH,79.34,overcast clouds,9.1924,117.8141,Toledo
530,Quatre Cocos,MU,73.09,clear sky,-20.2078,57.7625,Sunrise Attitude Hotel
532,Paciran,ID,81.16,overcast clouds,-6.8767,112.3761,Tanjung Kodok Beach Resort
533,Bridgetown,BB,84.69,few clouds,13.1,-59.6167,Hilton Barbados Resort
535,Vanimo,PG,79.03,overcast clouds,-2.6741,141.3028,Vahmoneh Lodge Vanimo
536,Canberra,AU,51.75,overcast clouds,-35.2835,149.1281,Novotel Canberra
537,Shaoxing,CN,62.92,broken clouds,30.011,120.5715,Holiday Inn Shaoxing
540,Sinnamary,GF,84.65,few clouds,5.3833,-52.95,ALETHEIA Appartement Sinnamary
541,Boyle,US,59.16,broken clouds,37.6334,-84.8666,Chaplin Hill Bed and Breakfast
542,Poum,NC,74.73,few clouds,-20.2333,164.0167,Gîte kajeon
544,Corinto,GR,63.9,overcast clouds,37.9407,22.9573,Ephira Hotel
545,Arlit,NE,90.34,clear sky,18.7369,7.3853,Case de Passage De la Prefecture
546,Gunjur,GM,89.67,overcast clouds,13.2019,-16.7339,"Gunjur, dalabaa lodge"
547,Touros,BR,88.7,scattered clouds,-5.1989,-35.4608,INN NEW HORIZON
548,Takoradi,GH,79.47,broken clouds,4.8845,-1.7554,Raybow International Hotel
549,Bom Jesus Da Lapa,BR,95.25,clear sky,-13.255,-43.4181,Hotel das Nações
550,Arinos,BR,92.35,few clouds,-15.9169,-46.1056,casa do bruno
551,Bacolod,PH,77.95,overcast clouds,10.6667,122.95,Planta Hotel & Residences
552,Bahia Blanca,AR,89.62,clear sky,-38.7196,-62.2724,Hotel Argos
554,La Asuncion,VE,82.13,overcast clouds,11.0333,-63.8628,Colinas de Matasiete
555,Bourail,NC,71.51,scattered clouds,-21.5667,165.4833,Motel Allamanda
556,Nelson,NZ,57.29,overcast clouds,-41.2833,173.2833,Rutherford Hotel Nelson
557,Reporoa,NZ,57.42,light rain,-38.4333,176.35,Reporoa
558,Westport,US,61.2,overcast clouds,41.1415,-73.3579,The Westport Inn
559,Ayame,CI,76.39,light rain,5.6083,-3.1563,Hotel Bossan
560,Olot,ES,59.29,overcast clouds,42.181,2.4901,Hotel Riu Fluvià
561,Byron Bay,AU,73.35,scattered clouds,-28.65,153.6167,Backpackers Inn on the Beach
562,Alexandria,EG,74.32,broken clouds,31.2156,29.9553,Royal Crown Hotel
565,Saurimo,AO,66.76,light rain,-9.6608,20.3916,Hotel Kawissa Saurimo
566,Baturaja,ID,74.32,overcast clouds,-4.1333,104.1667,"HOTEL Sekar Sunja, Baturaja Timur, Ogan Komering Ulu"
567,Calama,CL,73.89,clear sky,-22.4667,-68.9333,Diego De Almagro Calama
568,Pirganj,BD,71.71,clear sky,25.8523,88.3618,শেখ ছাত্রী নিবাস
571,Newport,GB,60.84,overcast clouds,51.5877,-2.9984,ibis budget Newport
574,Morant Bay,JM,87.62,overcast clouds,17.8815,-76.4093,Whispering Bamboo Cove Resort
577,Chake Chake,TZ,76.28,clear sky,-5.2459,39.7666,Hotel Archipelago
578,Angoche,MZ,78.15,clear sky,-16.2325,39.9086,Guest House HESADA
580,Venice,US,87.06,broken clouds,27.0998,-82.4543,A Beach Retreat On Casey Key
582,Manicore,BR,82.69,light rain,-5.8092,-61.3003,Hotel Durval
583,Mayo,US,71.19,clear sky,38.8876,-76.5119,Resorts Resource Group International
585,Matara,LK,76.66,overcast clouds,5.9485,80.5353,Amaloh Boutique Resort
586,Izumo,JP,53.55,clear sky,35.3667,132.7667,Toyoko-Inn Izumoshi ekimae
587,Pochutla,MX,91.22,broken clouds,15.7432,-96.4661,Hotel Posada San Jose
588,High Rock,BS,82.42,few clouds,26.6208,-78.2833,Hideaway Bahamas Beach Club
590,Zhicheng,CN,61.47,broken clouds,30.2956,111.5047,Wangjiang Building
591,La Libertad,EC,74.86,overcast clouds,-2.2333,-80.9,Playa Canela Hotel Boutique
593,Portland,US,56.61,broken clouds,45.5234,-122.6762,Embassy Suites by Hilton Portland Downtown
594,Yankton,US,53.11,mist,42.8711,-97.3973,"Holiday Inn Express & Suites Yankton, an IHG Hotel"
597,Mandan,US,52.03,clear sky,46.8267,-100.8896,Twin City Estates
600,Evanston,US,56.8,scattered clouds,42.0411,-87.6901,Hilton Garden Inn Chicago North Shore/Evanston
602,Barroquinha,BR,91.18,scattered clouds,-3.0189,-41.1361,Pousada Fontenele
603,Bontang,ID,79.09,broken clouds,0.1333,117.5,KOPKAR Hotel Bintang Sintuk
606,Shenjiamen,CN,66.45,scattered clouds,29.9576,122.298,Jinjiang Inn Zhoushan Putuo Shenjiamen
607,Kishanganj,IN,71.71,clear sky,26.1167,87.9333,HOTEL SILVERSTAR
608,Nizwa,OM,76.23,broken clouds,22.9333,57.5333,Orient Apartments
610,Doha,QA,84.51,clear sky,25.2867,51.5333,Movenpick Hotel Doha
611,Hualmay,PE,69.69,few clouds,-11.0964,-77.6139,Hotel Villa Kitzia Huacho
612,Lauf,DE,53.19,clear sky,48.65,8.1333,Hotel Burg Windeck Bühl
614,Pailon,BO,94.68,scattered clouds,-17.65,-62.75,Alojamiento pailon
615,Akyab,MM,78.22,overcast clouds,20.15,92.9,Hotel Memory
616,Mayumba,GA,76.12,overcast clouds,-3.432,10.6554,LIKWALE LODGE
617,Kampot,KH,78.85,overcast clouds,10.6167,104.1833,Two Moons Hotel
618,Port Augusta,AU,62.71,few clouds,-32.5,137.7667,Majestic Oasis Apartments
619,Sapele,NG,77.7,light rain,5.8941,5.6767,Movig Hotel & Suites
620,Sterling,US,69.96,clear sky,39.0062,-77.4286,Hampton Inn & Suites Washington-Dulles International Airport
621,Benito Juarez,MX,75.0,clear sky,19.385,-99.165,Hotel Novit
622,Apen,DE,58.15,overcast clouds,53.2167,7.8,Hengstforder Mühle
624,Namibe,AO,67.37,scattered clouds,-15.1961,12.1522,Hotel Chik Chik Namibe
625,Clyde,US,53.92,overcast clouds,41.3042,-82.9752,Red Roof Inn Clyde
627,Gushikawa,JP,72.63,clear sky,26.3544,127.8686,Kirari Guest House
628,Ambulu,ID,76.33,overcast clouds,-8.345,113.6058,Hotel Ambulu Jember
630,Amparafaravola,MG,65.82,clear sky,-17.5833,48.2167,Aina Franco
635,Dingle,PH,75.56,heavy intensity rain,10.9995,122.6711,SEGAYA PROPERTY
636,Saint Anthony,US,52.66,overcast clouds,45.0205,-93.218,"Holiday Inn Express Roseville-St. Paul, an IHG Hotel"
639,Goderich,CA,59.04,overcast clouds,43.7501,-81.7165,Harmony Inn
640,Varkkallai,IN,78.58,overcast clouds,8.7341,76.7067,SPOT ON 72723 Pathanjali Ayurveda Yoga Centre( Dreams Beach Resort)
641,Gisborne,NZ,61.95,overcast clouds,-38.6533,178.0042,ASURE Alfresco Motor Lodge
643,Vila Do Maio,CV,86.79,broken clouds,15.1333,-23.2167,Hotel Marilu
645,Grand-Santi,GF,93.99,broken clouds,4.25,-54.3833,Hotel La Villa Couacou
646,Yanam,IN,76.95,clear sky,16.7333,82.2167,The Regency Hotel
648,Shimoda,JP,59.11,overcast clouds,34.6667,138.95,Shimoda Tokyu Hotel
649,Mazamari,PE,90.12,scattered clouds,-11.3258,-74.5308,Hospedaje Ratto
650,Dzilam Gonzalez,MX,93.97,scattered clouds,21.2833,-88.9333,posadas
651,Forrest City,US,64.26,overcast clouds,35.0081,-90.7898,Hampton Inn Forrest City
653,Moree,AU,62.62,clear sky,-29.4667,149.85,Molika Springs Motel
654,Ambunti,PG,74.16,overcast clouds,-4.2365,142.8448,Ambunti Lodge
656,Minab,IR,78.3,few clouds,27.1467,57.0801,Bam campground
658,Santiago,CL,80.04,clear sky,-33.4569,-70.6483,Che Lagarto Hostel Santiago
659,Caldwell,US,57.99,broken clouds,43.6629,-116.6874,La Quinta Inn by Wyndham Caldwell
661,Hayden,US,50.97,few clouds,47.766,-116.7866,Triple Play Resort Hotel & Suites
662,Sechura,PE,77.94,overcast clouds,-5.5569,-80.8222,Hospedaje Costa Bella
664,Salamiyah,SY,69.13,clear sky,35.0113,37.0532,Gondolas Forum grandchildren and grandparents
665,Gobo,JP,58.98,clear sky,33.8833,135.15,Tabiji
667,Mwinilunga,ZM,73.71,broken clouds,-11.7358,24.4293,Kwakuwahi Lodge
668,Paita,PE,73.96,overcast clouds,-5.0892,-81.1144,Hotel Náutico de Paita
671,Marrakesh,MA,77.07,few clouds,31.6315,-8.0083,Novotel Marrakech Hivernage
672,Solok,ID,72.55,scattered clouds,-0.7918,100.6593,Mami Hotel & Restaurant
674,Owensboro,US,62.19,clear sky,37.7742,-87.1133,Courtyard by Marriott Owensboro
675,Kedainiai,LT,52.27,overcast clouds,55.2883,23.9747,Gray's house
676,Mutoko,ZW,66.88,few clouds,-17.397,32.2268,Mutoko Hotel
677,Kaeo,NZ,58.32,overcast clouds,-35.1,173.7833,Bushido Lodge
678,Mazagao,BR,95.05,overcast clouds,-0.115,-51.2894,Recanto dos Ferreiras
679,Kuala Terengganu,MY,78.75,scattered clouds,5.3302,103.1408,Hotel Grand Continental Kuala Terengganu (4 Star)
680,Swedru,GH,82.31,scattered clouds,5.5371,-0.6998,Emma-Ike Guesthouse
681,Guerrero Negro,MX,75.76,clear sky,27.9769,-114.0611,"Casa Laguna, Bed & Breakfast"
683,Hoi An,VN,76.96,overcast clouds,15.8794,108.335,Belle Maison Hadana Hoi An managed by H&K Hospitality
684,Yoichi,JP,53.22,broken clouds,43.2039,140.7703,Marumatta Farm 21
685,Los Llanos De Aridane,ES,69.55,few clouds,28.6585,-17.9182,Valle Aridane
